[{"id":"11001","idDepto":"11","latitude":4.29107,"longitude":-74.206192,"name":"BOGOTA D.C."},{"id":"13001","idDepto":"13","latitude":10.4500217,"longitude":-75.467926,"name":"CARTAGENA"},{"id":"13006","idDepto":"13","latitude":8.620142,"longitude":-74.4756927,"name":"ACHI"},{"id":"13030","idDepto":"13","latitude":8.7562885,"longitude":-74.1937561,"name":"ALTOS DEL ROSARIO"},{"id":"13042","idDepto":"13","latitude":8.3406925,"longitude":-74.1036606,"name":"ARENAL"},{"id":"13052","idDepto":"13","latitude":10.165946,"longitude":-75.3698578,"name":"ARJONA"},{"id":"13062","idDepto":"13","latitude":10.2447491,"longitude":-75.0299454,"name":"ARROYOHONDO"},{"id":"13074","idDepto":"13","latitude":8.8382921,"longitude":-74.1569748,"name":"BARRANCO DE LOBA"},{"id":"13140","idDepto":"13","latitude":10.2147789,"longitude":-75.0085983,"name":"CALAMAR"},{"id":"13160","idDepto":"13","latitude":7.2159023,"longitude":-74.0948257,"name":"CANTAGALLO"},{"id":"13188","idDepto":"13","latitude":9.2234755,"longitude":-74.6960831,"name":"CICUCO"},{"id":"13212","idDepto":"13","latitude":9.5463839,"longitude":-74.88517,"name":"CORDOBA"},{"id":"13222","idDepto":"13","latitude":10.5484905,"longitude":-75.3341217,"name":"CLEMENCIA"},{"id":"13244","idDepto":"13","latitude":9.7121458,"longitude":-75.1568146,"name":"EL CARMEN DE BOLIVAR"},{"id":"13248","idDepto":"13","latitude":10.0354071,"longitude":-74.933136,"name":"EL GUAMO"},{"id":"13268","idDepto":"13","latitude":8.8627882,"longitude":-73.9148865,"name":"EL PEÑON"},{"id":"13300","idDepto":"13","latitude":9.004734,"longitude":-74.357399,"name":"HATILLO DE LOBA"},{"id":"13430","idDepto":"13","latitude":9.1635838,"longitude":-74.7342987,"name":"MAGANGUE"},{"id":"13433","idDepto":"13","latitude":10.1748877,"longitude":-75.1856232,"name":"MAHATES"},{"id":"13440","idDepto":"13","latitude":9.0596838,"longitude":-74.2266006,"name":"MARGARITA"},{"id":"13442","idDepto":"13","latitude":9.9804525,"longitude":-75.3435898,"name":"MARIA LA BAJA"},{"id":"13458","idDepto":"13","latitude":8.0250864,"longitude":-74.4550323,"name":"MONTECRISTO"},{"id":"13468","idDepto":"13","latitude":9.1424274,"longitude":-74.541893,"name":"MOMPOS"},{"id":"13473","idDepto":"13","latitude":8.2522001,"longitude":-73.9685898,"name":"MORALES"},{"id":"13549","idDepto":"13","latitude":8.8737125,"longitude":-74.3783646,"name":"PINILLOS"},{"id":"13580","idDepto":"13","latitude":8.7366772,"longitude":-73.8396454,"name":"REGIDOR"},{"id":"13600","idDepto":"13","latitude":8.498683,"longitude":-74.0278473,"name":"RIO VIEJO"},{"id":"13620","idDepto":"13","latitude":10.3305283,"longitude":-75.1290207,"name":"SAN CRISTOBAL"},{"id":"13647","idDepto":"13","latitude":10.3664961,"longitude":-75.2142792,"name":"SAN ESTANISLAO"},{"id":"13650","idDepto":"13","latitude":9.097209,"longitude":-74.3604813,"name":"SAN FERNANDO"},{"id":"13654","idDepto":"13","latitude":9.8298788,"longitude":-75.1110382,"name":"SAN JACINTO"},{"id":"13655","idDepto":"13","latitude":8.2547054,"longitude":-74.6473389,"name":"SAN JACINTO DEL CAUCA"},{"id":"13657","idDepto":"13","latitude":9.9613056,"longitude":-75.0675888,"name":"SAN JUAN NEPOMUCENO"},{"id":"13667","idDepto":"13","latitude":8.7847948,"longitude":-74.0129318,"name":"SAN MARTIN DE  LOBA"},{"id":"13670","idDepto":"13","latitude":7.407351,"longitude":-74.1413116,"name":"SAN PABLO"},{"id":"13673","idDepto":"13","latitude":10.6542454,"longitude":-75.2873535,"name":"SANTA CATALINA"},{"id":"13683","idDepto":"13","latitude":10.462244,"longitude":-75.3662109,"name":"SANTA ROSA"},{"id":"13688","idDepto":"13","latitude":7.7689877,"longitude":-74.2547836,"name":"SANTA ROSA DEL SUR"},{"id":"13744","idDepto":"13","latitude":7.8502779,"longitude":-73.9798889,"name":"SIMITI"},{"id":"13760","idDepto":"13","latitude":10.3689594,"longitude":-75.0784454,"name":"SOPLAVIENTO"},{"id":"13780","idDepto":"13","latitude":9.3038816,"longitude":-74.6350632,"name":"TALAIGUA NUEVO"},{"id":"13810","idDepto":"13","latitude":8.4908018,"longitude":-74.2945557,"name":"TIQUISIO"},{"id":"13836","idDepto":"13","latitude":10.3485985,"longitude":-75.3839798,"name":"TURBACO"},{"id":"13838","idDepto":"13","latitude":10.230854,"longitude":-75.4598999,"name":"TURBANA"},{"id":"13873","idDepto":"13","latitude":10.4440594,"longitude":-75.2697754,"name":"VILLANUEVA"},{"id":"13894","idDepto":"13","latitude":9.7425241,"longitude":-74.8859863,"name":"ZAMBRANO"},{"id":"15001","idDepto":"15","latitude":5.5181336,"longitude":-73.3911972,"name":"TUNJA"},{"id":"15022","idDepto":"15","latitude":4.9633551,"longitude":-73.3986664,"name":"ALMEIDA"},{"id":"15047","idDepto":"15","latitude":5.4251795,"longitude":-72.8991547,"name":"AQUITANIA"},{"id":"15051","idDepto":"15","latitude":5.7550445,"longitude":-73.4526062,"name":"ARCABUCO"},{"id":"15087","idDepto":"15","latitude":6.0015073,"longitude":-72.907608,"name":"BELEN"},{"id":"15090","idDepto":"15","latitude":5.2222285,"longitude":-73.1169739,"name":"BERBEO"},{"id":"15092","idDepto":"15","latitude":5.9217825,"longitude":-72.866478,"name":"BETEITIVA"},{"id":"15097","idDepto":"15","latitude":6.3349953,"longitude":-72.6313324,"name":"BOAVITA"},{"id":"15104","idDepto":"15","latitude":5.4382792,"longitude":-73.3954239,"name":"BOYACA"},{"id":"15106","idDepto":"15","latitude":5.6660261,"longitude":-73.9206696,"name":"BRICEÑO"},{"id":"15109","idDepto":"15","latitude":5.4898162,"longitude":-73.9618301,"name":"BUENAVISTA"},{"id":"15114","idDepto":"15","latitude":5.840517,"longitude":-72.8871307,"name":"BUSBANZA"},{"id":"15131","idDepto":"15","latitude":5.5744596,"longitude":-73.8940353,"name":"CALDAS"},{"id":"15135","idDepto":"15","latitude":5.0045748,"longitude":-73.1593399,"name":"CAMPOHERMOSO"},{"id":"15162","idDepto":"15","latitude":5.9628472,"longitude":-72.9809189,"name":"CERINZA"},{"id":"15172","idDepto":"15","latitude":5.2033362,"longitude":-73.3615875,"name":"CHINAVITA"},{"id":"15176","idDepto":"15","latitude":5.6258512,"longitude":-73.8122101,"name":"CHIQUINQUIRA"},{"id":"15180","idDepto":"15","latitude":6.6883717,"longitude":-72.4164963,"name":"CHISCAS"},{"id":"15183","idDepto":"15","latitude":6.0976868,"longitude":-72.4582291,"name":"CHITA"},{"id":"15185","idDepto":"15","latitude":5.9907913,"longitude":-73.4349594,"name":"CHITARAQUE"},{"id":"15187","idDepto":"15","latitude":5.5593281,"longitude":-73.2800446,"name":"CHIVATA"},{"id":"15189","idDepto":"15","latitude":5.3879061,"longitude":-73.296524,"name":"CIENEGA"},{"id":"15204","idDepto":"15","latitude":5.6924233,"longitude":-73.3435593,"name":"COMBITA"},{"id":"15212","idDepto":"15","latitude":5.4484115,"longitude":-74.0353928,"name":"COPER"},{"id":"15215","idDepto":"15","latitude":5.814734,"longitude":-72.8611832,"name":"CORRALES"},{"id":"15218","idDepto":"15","latitude":6.5180855,"longitude":-72.7445984,"name":"COVARACHIA"},{"id":"15223","idDepto":"15","latitude":6.8887663,"longitude":-72.1895065,"name":"CUBARA"},{"id":"15224","idDepto":"15","latitude":5.530457,"longitude":-73.4601669,"name":"CUCAITA"},{"id":"15226","idDepto":"15","latitude":5.5838966,"longitude":-72.9531097,"name":"CUITIVA"},{"id":"15232","idDepto":"15","latitude":5.6451116,"longitude":-73.4584961,"name":"CHIQUIZA"},{"id":"15236","idDepto":"15","latitude":4.8832455,"longitude":-73.3829422,"name":"CHIVOR"},{"id":"15238","idDepto":"15","latitude":5.8918486,"longitude":-73.0827866,"name":"DUITAMA"},{"id":"15244","idDepto":"15","latitude":6.3490171,"longitude":-72.4354858,"name":"EL COCUY"},{"id":"15248","idDepto":"15","latitude":6.5042882,"longitude":-72.4896393,"name":"EL ESPINO"},{"id":"15272","idDepto":"15","latitude":5.6700501,"longitude":-73.0319748,"name":"FIRAVITOBA"},{"id":"15276","idDepto":"15","latitude":5.8532276,"longitude":-72.9395905,"name":"FLORESTA"},{"id":"15293","idDepto":"15","latitude":5.7432523,"longitude":-73.5540161,"name":"GACHANTIVA"},{"id":"15296","idDepto":"15","latitude":5.7982144,"longitude":-72.7486801,"name":"GAMEZA"},{"id":"15299","idDepto":"15","latitude":5.0896015,"longitude":-73.3261261,"name":"GARAGOA"},{"id":"15317","idDepto":"15","latitude":6.4447556,"longitude":-72.5277252,"name":"GUACAMAYAS"},{"id":"15322","idDepto":"15","latitude":5.0092745,"longitude":-73.5047302,"name":"GUATEQUE"},{"id":"15325","idDepto":"15","latitude":4.9375715,"longitude":-73.5111237,"name":"GUAYATA"},{"id":"15332","idDepto":"15","latitude":6.5631728,"longitude":-72.2660446,"name":"GUICAN"},{"id":"15362","idDepto":"15","latitude":5.6128416,"longitude":-72.9863739,"name":"IZA"},{"id":"15367","idDepto":"15","latitude":5.3743596,"longitude":-73.3927155,"name":"JENESANO"},{"id":"15368","idDepto":"15","latitude":6.1397014,"longitude":-72.5922394,"name":"JERICO"},{"id":"15377","idDepto":"15","latitude":5.53759,"longitude":-72.621666,"name":"LABRANZAGRANDE"},{"id":"15380","idDepto":"15","latitude":5.1126385,"longitude":-73.4717865,"name":"LA CAPILLA"},{"id":"15401","idDepto":"15","latitude":5.5306849,"longitude":-74.2379303,"name":"LA VICTORIA"},{"id":"15403","idDepto":"15","latitude":6.2619085,"longitude":-72.5629959,"name":"LA UVITA"},{"id":"15407","idDepto":"15","latitude":5.665863,"longitude":-73.5283966,"name":"VILLA DE LEIVA"},{"id":"15425","idDepto":"15","latitude":4.9781442,"longitude":-73.3122864,"name":"MACANAL"},{"id":"15442","idDepto":"15","latitude":5.5709901,"longitude":-74.0272751,"name":"MARIPI"},{"id":"15455","idDepto":"15","latitude":5.146975,"longitude":-73.1953964,"name":"MIRAFLORES"},{"id":"15464","idDepto":"15","latitude":5.7031236,"longitude":-72.7088623,"name":"MONGUA"},{"id":"15466","idDepto":"15","latitude":5.6906605,"longitude":-72.8427811,"name":"MONGUI"},{"id":"15469","idDepto":"15","latitude":5.8615203,"longitude":-73.5569153,"name":"MONIQUIRA"},{"id":"15476","idDepto":"15","latitude":5.6041741,"longitude":-73.3913956,"name":"MOTAVITA"},{"id":"15480","idDepto":"15","latitude":5.538712,"longitude":-74.1211319,"name":"MUZO"},{"id":"15491","idDepto":"15","latitude":5.7737803,"longitude":-72.9450531,"name":"NOBSA"},{"id":"15494","idDepto":"15","latitude":5.3560052,"longitude":-73.4650726,"name":"NUEVO COLON"},{"id":"15500","idDepto":"15","latitude":5.6073961,"longitude":-73.2908249,"name":"OICATA"},{"id":"15507","idDepto":"15","latitude":5.7597485,"longitude":-74.2034683,"name":"OTANCHE"},{"id":"15511","idDepto":"15","latitude":5.1428456,"longitude":-73.4125824,"name":"PACHAVITA"},{"id":"15514","idDepto":"15","latitude":5.0940933,"longitude":-73.0127258,"name":"PAEZ"},{"id":"15516","idDepto":"15","latitude":5.8322926,"longitude":-73.1678772,"name":"PAIPA"},{"id":"15518","idDepto":"15","latitude":5.3817253,"longitude":-72.713768,"name":"PAJARITO"},{"id":"15522","idDepto":"15","latitude":6.436892,"longitude":-72.4719772,"name":"PANQUEBA"},{"id":"15531","idDepto":"15","latitude":5.7023787,"longitude":-74.0166473,"name":"PAUNA"},{"id":"15533","idDepto":"15","latitude":5.6605549,"longitude":-72.3844376,"name":"PAYA"},{"id":"15537","idDepto":"15","latitude":6.0260153,"longitude":-72.7837067,"name":"PAZ DE RIO"},{"id":"15542","idDepto":"15","latitude":5.5012841,"longitude":-73.095787,"name":"PESCA"},{"id":"15550","idDepto":"15","latitude":5.7439547,"longitude":-72.4987411,"name":"PISBA"},{"id":"15572","idDepto":"15","latitude":5.9593806,"longitude":-74.4532928,"name":"PUERTO BOYACA"},{"id":"15580","idDepto":"15","latitude":5.5676708,"longitude":-74.2233124,"name":"QUIPAMA"},{"id":"15599","idDepto":"15","latitude":5.3191271,"longitude":-73.328064,"name":"RAMIRIQUI"},{"id":"15600","idDepto":"15","latitude":5.5028629,"longitude":-73.6271896,"name":"RAQUIRA"},{"id":"15621","idDepto":"15","latitude":5.3796835,"longitude":-73.2115555,"name":"RONDON"},{"id":"15632","idDepto":"15","latitude":5.7096176,"longitude":-73.7571564,"name":"SABOYA"},{"id":"15638","idDepto":"15","latitude":5.5743046,"longitude":-73.5549698,"name":"SACHICA"},{"id":"15646","idDepto":"15","latitude":5.4759564,"longitude":-73.5273972,"name":"SAMACA"},{"id":"15660","idDepto":"15","latitude":5.2287412,"longitude":-73.0652161,"name":"SAN EDUARDO"},{"id":"15664","idDepto":"15","latitude":5.9944553,"longitude":-73.5537872,"name":"SAN JOSE DE PARE"},{"id":"15667","idDepto":"15","latitude":4.8152394,"longitude":-73.1368256,"name":"SAN LUIS DE GACENO"},{"id":"15673","idDepto":"15","latitude":6.4012733,"longitude":-72.5693817,"name":"SAN MATEO"},{"id":"15676","idDepto":"15","latitude":5.5301929,"longitude":-73.7528229,"name":"SAN MIGUEL DE SEMA"},{"id":"15681","idDepto":"15","latitude":5.6803164,"longitude":-74.116394,"name":"SAN PABLO DE BORBUR"},{"id":"15686","idDepto":"15","latitude":6.0622234,"longitude":-73.4975357,"name":"SANTANA"},{"id":"15690","idDepto":"15","latitude":4.82902,"longitude":-73.2723618,"name":"SANTA MARIA"},{"id":"15693","idDepto":"15","latitude":5.8801675,"longitude":-72.9988403,"name":"SANTA ROSA DE VITERBO"},{"id":"15696","idDepto":"15","latitude":5.726295,"longitude":-73.6112671,"name":"SANTA SOFIA"},{"id":"15720","idDepto":"15","latitude":6.1229854,"longitude":-72.7447052,"name":"SATIVANORTE"},{"id":"15723","idDepto":"15","latitude":6.0645337,"longitude":-72.7393951,"name":"SATIVASUR"},{"id":"15740","idDepto":"15","latitude":5.4957857,"longitude":-73.2274475,"name":"SIACHOQUE"},{"id":"15753","idDepto":"15","latitude":6.3180599,"longitude":-72.7051239,"name":"SOATA"},{"id":"15755","idDepto":"15","latitude":5.9304428,"longitude":-72.576973,"name":"SOCOTA"},{"id":"15757","idDepto":"15","latitude":5.9534688,"longitude":-72.6981354,"name":"SOCHA"},{"id":"15759","idDepto":"15","latitude":5.6631331,"longitude":-72.900238,"name":"SOGAMOSO"},{"id":"15761","idDepto":"15","latitude":4.9708958,"longitude":-73.444519,"name":"SOMONDOCO"},{"id":"15762","idDepto":"15","latitude":5.5853939,"longitude":-73.4562531,"name":"SORA"},{"id":"15763","idDepto":"15","latitude":5.7867112,"longitude":-73.2653275,"name":"SOTAQUIRA"},{"id":"15764","idDepto":"15","latitude":5.4928269,"longitude":-73.33358,"name":"SORACA"},{"id":"15774","idDepto":"15","latitude":6.2087278,"longitude":-72.7321014,"name":"SUSACON"},{"id":"15776","idDepto":"15","latitude":5.6392636,"longitude":-73.6373291,"name":"SUTAMARCHAN"},{"id":"15778","idDepto":"15","latitude":5.0216675,"longitude":-73.4505844,"name":"SUTATENZA"},{"id":"15790","idDepto":"15","latitude":5.8770332,"longitude":-72.744751,"name":"TASCO"},{"id":"15798","idDepto":"15","latitude":5.0697594,"longitude":-73.4382401,"name":"TENZA"},{"id":"15804","idDepto":"15","latitude":5.2962031,"longitude":-73.4074554,"name":"TIBANA"},{"id":"15806","idDepto":"15","latitude":5.7441893,"longitude":-73.0210724,"name":"TIBASOSA"},{"id":"15807","idDepto":"15","latitude":0,"longitude":0,"name":"TIBIRITA"},{"id":"15808","idDepto":"15","latitude":5.5788851,"longitude":-73.6860962,"name":"TINJACA"},{"id":"15810","idDepto":"15","latitude":6.4094567,"longitude":-72.7044144,"name":"TIPACOQUE"},{"id":"15814","idDepto":"15","latitude":5.5774388,"longitude":-73.1747131,"name":"TOCA"},{"id":"15816","idDepto":"15","latitude":5.9221582,"longitude":-73.4969101,"name":"TOGUI"},{"id":"15820","idDepto":"15","latitude":5.7596726,"longitude":-72.8503952,"name":"TOPAGA"},{"id":"15822","idDepto":"15","latitude":5.4765992,"longitude":-73.0267563,"name":"TOTA"},{"id":"15832","idDepto":"15","latitude":5.7259312,"longitude":-73.937233,"name":"TUNUNGA"},{"id":"15835","idDepto":"15","latitude":5.3110495,"longitude":-73.5266953,"name":"TURMEQUE"},{"id":"15837","idDepto":"15","latitude":5.6705556,"longitude":-73.1959229,"name":"TUTA"},{"id":"15839","idDepto":"15","latitude":6.0660543,"longitude":-72.8696442,"name":"TUTAZA"},{"id":"15842","idDepto":"15","latitude":5.2174969,"longitude":-73.4759216,"name":"UMBITA"},{"id":"15861","idDepto":"15","latitude":5.3943086,"longitude":-73.5309067,"name":"VENTAQUEMADA"},{"id":"15879","idDepto":"15","latitude":5.4369478,"longitude":-73.2819824,"name":"VIRACACHA"},{"id":"15897","idDepto":"15","latitude":5.2807093,"longitude":-73.1863861,"name":"ZETAQUIRA"},{"id":"17001","idDepto":"17","latitude":5.0803576,"longitude":-75.509285,"name":"MANIZALES"},{"id":"17013","idDepto":"17","latitude":5.6034989,"longitude":-75.4609451,"name":"AGUADAS"},{"id":"17042","idDepto":"17","latitude":5.2031398,"longitude":-75.7705307,"name":"ANSERMA"},{"id":"17050","idDepto":"17","latitude":5.2702584,"longitude":-75.4941254,"name":"ARANZAZU"},{"id":"17088","idDepto":"17","latitude":4.9910908,"longitude":-75.8200073,"name":"BELALCAZAR"},{"id":"17174","idDepto":"17","latitude":4.9850454,"longitude":-75.673439,"name":"CHINCHINA"},{"id":"17272","idDepto":"17","latitude":5.2926145,"longitude":-75.607811,"name":"FILADELFIA"},{"id":"17380","idDepto":"17","latitude":5.5411859,"longitude":-74.71978,"name":"LA DORADA"},{"id":"17388","idDepto":"17","latitude":5.4006782,"longitude":-75.5769501,"name":"LA MERCED"},{"id":"17433","idDepto":"17","latitude":5.2389984,"longitude":-75.1670151,"name":"MANZANARES"},{"id":"17442","idDepto":"17","latitude":5.4989867,"longitude":-75.6121597,"name":"MARMATO"},{"id":"17444","idDepto":"17","latitude":5.3126841,"longitude":-75.0571136,"name":"MARQUETALIA"},{"id":"17446","idDepto":"17","latitude":5.2343926,"longitude":-75.3025436,"name":"MARULANDA"},{"id":"17486","idDepto":"17","latitude":5.1843495,"longitude":-75.5211639,"name":"NEIRA"},{"id":"17495","idDepto":"17","latitude":5.6489639,"longitude":-74.8559799,"name":"NORCASIA"},{"id":"17513","idDepto":"17","latitude":5.5081396,"longitude":-75.4996262,"name":"PACORA"},{"id":"17524","idDepto":"17","latitude":5.0554285,"longitude":-75.6680832,"name":"PALESTINA"},{"id":"17541","idDepto":"17","latitude":5.4121871,"longitude":-75.1898041,"name":"PENSILVANIA"},{"id":"17614","idDepto":"17","latitude":5.4456263,"longitude":-75.7628632,"name":"RIOSUCIO"},{"id":"17616","idDepto":"17","latitude":5.1115966,"longitude":-75.7632828,"name":"RISARALDA"},{"id":"17653","idDepto":"17","latitude":5.3798356,"longitude":-75.4283142,"name":"SALAMINA"},{"id":"17662","idDepto":"17","latitude":5.5425739,"longitude":-75.0042877,"name":"SAMANA"},{"id":"17665","idDepto":"17","latitude":5.067996,"longitude":-75.8146515,"name":"SAN JOSE"},{"id":"17777","idDepto":"17","latitude":5.4561067,"longitude":-75.6459808,"name":"SUPIA"},{"id":"17867","idDepto":"17","latitude":5.4510403,"longitude":-74.8524399,"name":"VICTORIA"},{"id":"17873","idDepto":"17","latitude":4.9476213,"longitude":-75.4306641,"name":"VILLAMARIA"},{"id":"17877","idDepto":"17","latitude":5.0348396,"longitude":-75.8790588,"name":"VITERBO"},{"id":"18001","idDepto":"18","latitude":1.7549124,"longitude":-75.5677032,"name":"FLORENCIA"},{"id":"18029","idDepto":"18","latitude":1.2541902,"longitude":-75.8862839,"name":"ALBANIA"},{"id":"18094","idDepto":"18","latitude":1.4798319,"longitude":-75.8542938,"name":"BELEN DE LOS ANDAQUIES"},{"id":"18150","idDepto":"18","latitude":0.683688,"longitude":-74.2842865,"name":"CARTAGENA DEL CHAIRA"},{"id":"18205","idDepto":"18","latitude":1.0911697,"longitude":-75.9695892,"name":"CURILLO"},{"id":"18247","idDepto":"18","latitude":1.7761773,"longitude":-75.1547928,"name":"EL DONCELLO"},{"id":"18256","idDepto":"18","latitude":1.7722988,"longitude":-75.2681046,"name":"PAUJIL"},{"id":"18410","idDepto":"18","latitude":1.4273617,"longitude":-75.2586746,"name":"LA MONTAÑITA"},{"id":"18460","idDepto":"18","latitude":1.1699651,"longitude":-75.3796539,"name":"MILAN"},{"id":"18479","idDepto":"18","latitude":1.4122336,"longitude":-75.6723709,"name":"MORELIA"},{"id":"18592","idDepto":"18","latitude":1.9885004,"longitude":-75.0585785,"name":"PUERTO RICO"},{"id":"18610","idDepto":"18","latitude":1.3330202,"longitude":-76.1127396,"name":"SAN JOSE DEL FRAGUA"},{"id":"18753","idDepto":"18","latitude":1.6110592,"longitude":-74.2786179,"name":"SAN VICENTE DEL CAGUAN"},{"id":"18756","idDepto":"18","latitude":0.225319,"longitude":-73.1496201,"name":"SOLANO"},{"id":"18785","idDepto":"18","latitude":0.9221148,"longitude":-75.6416702,"name":"SOLITA"},{"id":"18860","idDepto":"18","latitude":1.1020963,"longitude":-75.619606,"name":"VALPARAISO"},{"id":"19001","idDepto":"19","latitude":2.4648149,"longitude":-76.5913467,"name":"POPAYAN"},{"id":"19022","idDepto":"19","latitude":1.9075392,"longitude":-76.8312302,"name":"ALMAGUER"},{"id":"19050","idDepto":"19","latitude":2.3029001,"longitude":-77.2576523,"name":"ARGELIA"},{"id":"19075","idDepto":"19","latitude":2.0782869,"longitude":-77.211853,"name":"BALBOA"},{"id":"19100","idDepto":"19","latitude":1.8490727,"longitude":-76.963562,"name":"BOLIVAR"},{"id":"19110","idDepto":"19","latitude":3.0079544,"longitude":-76.6425171,"name":"BUENOS AIRES"},{"id":"19130","idDepto":"19","latitude":2.6344998,"longitude":-76.6977539,"name":"CAJIBIO"},{"id":"19137","idDepto":"19","latitude":2.7994251,"longitude":-76.4624939,"name":"CALDONO"},{"id":"19142","idDepto":"19","latitude":3.0608554,"longitude":-76.369606,"name":"CALOTO"},{"id":"19212","idDepto":"19","latitude":3.1262665,"longitude":-76.2179947,"name":"CORINTO"},{"id":"19256","idDepto":"19","latitude":2.5244043,"longitude":-77.0037231,"name":"EL TAMBO"},{"id":"19300","idDepto":"19","latitude":0,"longitude":0,"name":"Guachene"},{"id":"19318","idDepto":"19","latitude":2.4442775,"longitude":-77.6446609,"name":"GUAPI"},{"id":"19355","idDepto":"19","latitude":2.5186622,"longitude":-76.1329956,"name":"INZA"},{"id":"19364","idDepto":"19","latitude":2.8444958,"longitude":-76.3115692,"name":"JAMBALO"},{"id":"19392","idDepto":"19","latitude":2.1791873,"longitude":-76.7801895,"name":"LA SIERRA"},{"id":"19397","idDepto":"19","latitude":2.0480568,"longitude":-76.7566681,"name":"LA VEGA"},{"id":"19418","idDepto":"19","latitude":2.9871311,"longitude":-77.2558365,"name":"LOPEZ"},{"id":"19450","idDepto":"19","latitude":1.7947519,"longitude":-77.1735306,"name":"MERCADERES"},{"id":"19455","idDepto":"19","latitude":3.2135477,"longitude":-76.2025681,"name":"MIRANDA"},{"id":"19473","idDepto":"19","latitude":2.8039105,"longitude":-76.7417374,"name":"MORALES"},{"id":"19513","idDepto":"19","latitude":3.192121,"longitude":-76.3370285,"name":"PADILLA"},{"id":"19517","idDepto":"19","latitude":2.7398543,"longitude":-76.0278015,"name":"PAEZ (BELALCAZAR)"},{"id":"19532","idDepto":"19","latitude":2.1425481,"longitude":-77.0579758,"name":"PATIA (EL BORDO)"},{"id":"19533","idDepto":"19","latitude":1.1580832,"longitude":-76.2973862,"name":"PIAMONTE"},{"id":"19548","idDepto":"19","latitude":2.7066364,"longitude":-76.5639801,"name":"PIENDAMO"},{"id":"19573","idDepto":"19","latitude":3.2654366,"longitude":-76.4231491,"name":"PUERTO TEJADA"},{"id":"19585","idDepto":"19","latitude":2.2622449,"longitude":-76.434433,"name":"PURACE (COCONUCO)"},{"id":"19622","idDepto":"19","latitude":2.2341127,"longitude":-76.7409821,"name":"ROSAS"},{"id":"19693","idDepto":"19","latitude":1.8522857,"longitude":-76.7065201,"name":"SAN SEBASTIAN"},{"id":"19698","idDepto":"19","latitude":2.9780486,"longitude":-76.4992752,"name":"SANTANDER DE QUILICHAO"},{"id":"19701","idDepto":"19","latitude":1.5186536,"longitude":-76.5609818,"name":"SANTA ROSA"},{"id":"19743","idDepto":"19","latitude":2.6487639,"longitude":-76.3472672,"name":"SILVIA"},{"id":"19760","idDepto":"19","latitude":2.227783,"longitude":-76.6114426,"name":"SOTARA"},{"id":"19780","idDepto":"19","latitude":2.927139,"longitude":-76.7449112,"name":"SUAREZ"},{"id":"19785","idDepto":"19","latitude":2.0558083,"longitude":-76.9137726,"name":"SUCRE"},{"id":"19807","idDepto":"19","latitude":2.3611248,"longitude":-76.7078018,"name":"TIMBIO"},{"id":"19809","idDepto":"19","latitude":2.70454,"longitude":-77.4944,"name":"TIMBIQUI"},{"id":"19821","idDepto":"19","latitude":2.9681165,"longitude":-76.1988525,"name":"TORIBIO"},{"id":"19824","idDepto":"19","latitude":2.4899211,"longitude":-76.3781128,"name":"TOTORO"},{"id":"19845","idDepto":"19","latitude":3.1754274,"longitude":-76.4599915,"name":"VILLA RICA"},{"id":"19846","idDepto":"19","latitude":0,"longitude":0,"name":"EL BORDO"},{"id":"20001","idDepto":"20","latitude":10.3865576,"longitude":-73.4688644,"name":"VALLEDUPAR"},{"id":"20011","idDepto":"20","latitude":8.2581797,"longitude":-73.6165314,"name":"AGUACHICA"},{"id":"20013","idDepto":"20","latitude":9.9515562,"longitude":-73.2260284,"name":"AGUSTIN CODAZZI"},{"id":"20032","idDepto":"20","latitude":9.5129318,"longitude":-73.9547348,"name":"ASTREA"},{"id":"20045","idDepto":"20","latitude":9.7308807,"longitude":-73.2517395,"name":"BECERRIL"},{"id":"20060","idDepto":"20","latitude":9.9494028,"longitude":-73.8696365,"name":"BOSCONIA"},{"id":"20175","idDepto":"20","latitude":9.2204447,"longitude":-73.7491837,"name":"CHIMICHAGUA"},{"id":"20178","idDepto":"20","latitude":9.4297628,"longitude":-73.5520248,"name":"CHIRIGUANA"},{"id":"20228","idDepto":"20","latitude":9.241704,"longitude":-73.4860535,"name":"CURUMANI"},{"id":"20238","idDepto":"20","latitude":10.2078505,"longitude":-73.9202728,"name":"EL COPEY"},{"id":"20250","idDepto":"20","latitude":9.6847048,"longitude":-73.6972351,"name":"EL PASO"},{"id":"20295","idDepto":"20","latitude":8.3431892,"longitude":-73.7030411,"name":"GAMARRA"},{"id":"20310","idDepto":"20","latitude":8.4002228,"longitude":-73.3779144,"name":"GONZALEZ"},{"id":"20383","idDepto":"20","latitude":8.625495,"longitude":-73.6298752,"name":"LA GLORIA"},{"id":"20400","idDepto":"20","latitude":9.5540285,"longitude":-73.3251953,"name":"LA JAGUA DE IBIRICO"},{"id":"20443","idDepto":"20","latitude":10.400219,"longitude":-72.9842453,"name":"MANAURE (BALCON DEL CESAR)"},{"id":"20517","idDepto":"20","latitude":8.9436808,"longitude":-73.56884,"name":"PAILITAS"},{"id":"20550","idDepto":"20","latitude":8.7695141,"longitude":-73.6247406,"name":"PELAYA"},{"id":"20570","idDepto":"20","latitude":10.4797239,"longitude":-73.5990753,"name":"PUEBLO BELLO"},{"id":"20614","idDepto":"20","latitude":8.200654,"longitude":-73.4831009,"name":"RIO DE ORO"},{"id":"20621","idDepto":"20","latitude":10.1724005,"longitude":-73.186676,"name":"LA PAZ"},{"id":"20710","idDepto":"20","latitude":7.8194561,"longitude":-73.4528809,"name":"SAN ALBERTO"},{"id":"20750","idDepto":"20","latitude":10.1725664,"longitude":-73.2907562,"name":"SAN DIEGO"},{"id":"20770","idDepto":"20","latitude":7.9347062,"longitude":-73.5435715,"name":"SAN MARTIN"},{"id":"20787","idDepto":"20","latitude":8.9097109,"longitude":-73.7659912,"name":"TAMALAMEQUE"},{"id":"23001","idDepto":"23","latitude":8.5884962,"longitude":-75.9328079,"name":"MONTERIA"},{"id":"23068","idDepto":"23","latitude":8.2601185,"longitude":-75.0386505,"name":"AYAPEL"},{"id":"23079","idDepto":"23","latitude":8.193553,"longitude":-75.4251938,"name":"BUENAVISTA"},{"id":"23090","idDepto":"23","latitude":8.7132034,"longitude":-76.2202377,"name":"CANALETE"},{"id":"23162","idDepto":"23","latitude":8.8947353,"longitude":-75.8155594,"name":"CERETE"},{"id":"23168","idDepto":"23","latitude":9.1154289,"longitude":-75.6246109,"name":"CHIMA"},{"id":"23182","idDepto":"23","latitude":9.0282097,"longitude":-75.348114,"name":"CHINU"},{"id":"23189","idDepto":"23","latitude":8.8468122,"longitude":-75.5858536,"name":"CIENAGA DE ORO"},{"id":"23300","idDepto":"23","latitude":9.0462999,"longitude":-75.7649002,"name":"COTORRA"},{"id":"23350","idDepto":"23","latitude":8.045536,"longitude":-75.2882462,"name":"LA APARTADA"},{"id":"23417","idDepto":"23","latitude":9.1647539,"longitude":-75.8822632,"name":"LORICA"},{"id":"23419","idDepto":"23","latitude":8.8514585,"longitude":-76.2844315,"name":"LOS CORDOBAS"},{"id":"23464","idDepto":"23","latitude":9.2679796,"longitude":-75.6271057,"name":"MOMIL"},{"id":"23466","idDepto":"23","latitude":7.8881631,"longitude":-75.7168427,"name":"MONTELIBANO"},{"id":"23500","idDepto":"23","latitude":9.2019272,"longitude":-76.1125031,"name":"MOÑITOS"},{"id":"23555","idDepto":"23","latitude":8.2994184,"longitude":-75.5996017,"name":"PLANETA RICA"},{"id":"23570","idDepto":"23","latitude":8.4788065,"longitude":-75.3879623,"name":"PUEBLO NUEVO"},{"id":"23574","idDepto":"23","latitude":8.9986496,"longitude":-76.1744766,"name":"PUERTO ESCONDIDO"},{"id":"23580","idDepto":"23","latitude":7.7214189,"longitude":-75.7416458,"name":"PUERTO LIBERTADOR"},{"id":"23586","idDepto":"23","latitude":9.2824936,"longitude":-75.7042923,"name":"PURISIMA"},{"id":"23660","idDepto":"23","latitude":8.8040667,"longitude":-75.4146347,"name":"SAHAGUN"},{"id":"23670","idDepto":"23","latitude":9.1528978,"longitude":-75.50103,"name":"SAN ANDRES DE SOTAVENTO"},{"id":"23672","idDepto":"23","latitude":9.3655043,"longitude":-75.7735825,"name":"SAN ANTERO"},{"id":"23675","idDepto":"23","latitude":9.3305168,"longitude":-75.9554749,"name":"SAN BERNARDO DEL VIENTO"},{"id":"23678","idDepto":"23","latitude":8.706234,"longitude":-75.6663132,"name":"SAN CARLOS"},{"id":"23682","idDepto":"23","latitude":0,"longitude":0,"name":"San José de Uré"},{"id":"23686","idDepto":"23","latitude":8.9943056,"longitude":-75.8825607,"name":"SAN PELAYO"},{"id":"23807","idDepto":"23","latitude":7.8061786,"longitude":-76.1580505,"name":"TIERRALTA"},{"id":"23855","idDepto":"23","latitude":8.2215271,"longitude":-76.2078018,"name":"VALENCIA"},{"id":"25001","idDepto":"25","latitude":4.371736,"longitude":-74.6909332,"name":"AGUA DE DIOS"},{"id":"25019","idDepto":"25","latitude":4.8863134,"longitude":-74.4557037,"name":"ALBAN"},{"id":"25035","idDepto":"25","latitude":4.5587611,"longitude":-74.5421371,"name":"ANAPOIMA"},{"id":"25040","idDepto":"25","latitude":4.788816,"longitude":-74.4783173,"name":"ANOLAIMA"},{"id":"25053","idDepto":"25","latitude":4.2295847,"longitude":-74.4069138,"name":"ARBELAEZ"},{"id":"25086","idDepto":"25","latitude":4.719902,"longitude":-74.7681961,"name":"BELTRAN"},{"id":"25095","idDepto":"25","latitude":4.8481917,"longitude":-74.5434265,"name":"BITUIMA"},{"id":"25099","idDepto":"25","latitude":4.6928167,"longitude":-74.345192,"name":"BOJACA"},{"id":"25120","idDepto":"25","latitude":3.900533,"longitude":-74.4662704,"name":"CABRERA"},{"id":"25123","idDepto":"25","latitude":4.7202029,"longitude":-74.4822159,"name":"CACHIPAY"},{"id":"25126","idDepto":"25","latitude":4.9309015,"longitude":-74.0413208,"name":"CAJICA"},{"id":"25148","idDepto":"25","latitude":5.3879833,"longitude":-74.5330429,"name":"CAPARRAPI"},{"id":"25151","idDepto":"25","latitude":4.4020762,"longitude":-73.9617081,"name":"CAQUEZA"},{"id":"25154","idDepto":"25","latitude":5.3392024,"longitude":-73.9396667,"name":"CARMEN DE CARUPA"},{"id":"25168","idDepto":"25","latitude":4.9559503,"longitude":-74.6446686,"name":"CHAGUANI"},{"id":"25175","idDepto":"25","latitude":4.8686051,"longitude":-74.0480499,"name":"CHIA"},{"id":"25178","idDepto":"25","latitude":4.4274917,"longitude":-74.0716858,"name":"CHIPAQUE"},{"id":"25181","idDepto":"25","latitude":4.581686,"longitude":-73.9324036,"name":"CHOACHI"},{"id":"25183","idDepto":"25","latitude":5.1169634,"longitude":-73.6907043,"name":"CHOCONTA"},{"id":"25200","idDepto":"25","latitude":5.102365,"longitude":-73.9868469,"name":"COGUA"},{"id":"25214","idDepto":"25","latitude":4.7871752,"longitude":-74.1372604,"name":"COTA"},{"id":"25224","idDepto":"25","latitude":5.2327714,"longitude":-73.7879562,"name":"CUCUNUBA"},{"id":"25245","idDepto":"25","latitude":4.557188,"longitude":-74.444603,"name":"EL COLEGIO"},{"id":"25258","idDepto":"25","latitude":5.2673459,"longitude":-74.3225403,"name":"EL PEÑON"},{"id":"25260","idDepto":"25","latitude":4.8694787,"longitude":-74.2532501,"name":"EL ROSAL"},{"id":"25269","idDepto":"25","latitude":4.835588,"longitude":-74.3527679,"name":"FACATATIVA"},{"id":"25279","idDepto":"25","latitude":4.5300012,"longitude":-73.8104324,"name":"FOMEQUE"},{"id":"25281","idDepto":"25","latitude":4.3147678,"longitude":-73.9714661,"name":"FOSCA"},{"id":"25286","idDepto":"25","latitude":4.7402134,"longitude":-74.2128143,"name":"FUNZA"},{"id":"25288","idDepto":"25","latitude":5.419785,"longitude":-73.7810822,"name":"FUQUENE"},{"id":"25290","idDepto":"25","latitude":4.3198199,"longitude":-74.3932266,"name":"FUSAGASUGA"},{"id":"25293","idDepto":"25","latitude":4.6367784,"longitude":-73.5379181,"name":"GACHALA"},{"id":"25295","idDepto":"25","latitude":5.0082841,"longitude":-73.889801,"name":"GACHANCIPA"},{"id":"25297","idDepto":"25","latitude":4.8668809,"longitude":-73.6304169,"name":"GACHETA"},{"id":"25299","idDepto":"25","latitude":4.7208309,"longitude":-73.6136932,"name":"GAMA"},{"id":"25307","idDepto":"25","latitude":4.3408875,"longitude":-74.8242645,"name":"GIRARDOT"},{"id":"25317","idDepto":"25","latitude":5.3987169,"longitude":-73.6998444,"name":"GUACHETA"},{"id":"25320","idDepto":"25","latitude":5.1738834,"longitude":-74.6474304,"name":"GUADUAS"},{"id":"25322","idDepto":"25","latitude":4.8005514,"longitude":-73.8595886,"name":"GUASCA"},{"id":"25324","idDepto":"25","latitude":4.5126972,"longitude":-74.7965164,"name":"GUATAQUI"},{"id":"25326","idDepto":"25","latitude":4.9132142,"longitude":-73.7983017,"name":"GUATAVITA"},{"id":"25328","idDepto":"25","latitude":4.8829627,"longitude":-74.498848,"name":"GUAYABAL DE SIQUIMA"},{"id":"25335","idDepto":"25","latitude":4.2313743,"longitude":-73.8452835,"name":"GUAYABETAL"},{"id":"25339","idDepto":"25","latitude":4.1655693,"longitude":-74.0458145,"name":"GUTIERREZ"},{"id":"25368","idDepto":"25","latitude":4.5732546,"longitude":-74.7078857,"name":"JERUSALEN"},{"id":"25372","idDepto":"25","latitude":4.7101135,"longitude":-73.7059174,"name":"JUNIN"},{"id":"25377","idDepto":"25","latitude":4.6996145,"longitude":-73.9358139,"name":"LA CALERA"},{"id":"25386","idDepto":"25","latitude":4.6509976,"longitude":-74.4912567,"name":"LA MESA"},{"id":"25394","idDepto":"25","latitude":5.3402381,"longitude":-74.4217453,"name":"LA PALMA"},{"id":"25398","idDepto":"25","latitude":5.2111053,"longitude":-74.4223938,"name":"LA PEÑA"},{"id":"25402","idDepto":"25","latitude":4.9809537,"longitude":-74.3555145,"name":"LA VEGA"},{"id":"25407","idDepto":"25","latitude":5.308588,"longitude":-73.6906509,"name":"LENGUAZAQUE"},{"id":"25426","idDepto":"25","latitude":5.0390782,"longitude":-73.629837,"name":"MACHETA"},{"id":"25430","idDepto":"25","latitude":4.7704654,"longitude":-74.2764206,"name":"MADRID"},{"id":"25436","idDepto":"25","latitude":4.9752007,"longitude":-73.5742874,"name":"MANTA"},{"id":"25438","idDepto":"25","latitude":4.4872751,"longitude":-73.4147949,"name":"MEDINA"},{"id":"25473","idDepto":"25","latitude":4.6717587,"longitude":-74.2523499,"name":"MOSQUERA"},{"id":"25483","idDepto":"25","latitude":4.4096045,"longitude":-74.8187714,"name":"NARIÑO"},{"id":"25486","idDepto":"25","latitude":5.0925789,"longitude":-73.8917313,"name":"NEMOCON"},{"id":"25488","idDepto":"25","latitude":4.2967119,"longitude":-74.6278992,"name":"NILO"},{"id":"25489","idDepto":"25","latitude":5.1402349,"longitude":-74.4105988,"name":"NIMAIMA"},{"id":"25491","idDepto":"25","latitude":5.0687819,"longitude":-74.4055023,"name":"NOCAIMA"},{"id":"25513","idDepto":"25","latitude":5.1709127,"longitude":-74.1770096,"name":"PACHO"},{"id":"25518","idDepto":"25","latitude":5.398901,"longitude":-74.1708832,"name":"PAIME"},{"id":"25524","idDepto":"25","latitude":4.1653533,"longitude":-74.4796066,"name":"PANDI"},{"id":"25530","idDepto":"25","latitude":4.4567809,"longitude":-73.1940155,"name":"PARATEBUENO"},{"id":"25535","idDepto":"25","latitude":4.2956748,"longitude":-74.2783127,"name":"PASCA"},{"id":"25572","idDepto":"25","latitude":5.62677,"longitude":-74.5857697,"name":"PUERTO SALGAR"},{"id":"25580","idDepto":"25","latitude":4.6941648,"longitude":-74.6917191,"name":"PULI"},{"id":"25592","idDepto":"25","latitude":5.1074977,"longitude":-74.5075073,"name":"QUEBRADANEGRA"},{"id":"25594","idDepto":"25","latitude":4.3364935,"longitude":-73.8655472,"name":"QUETAME"},{"id":"25596","idDepto":"25","latitude":4.7138553,"longitude":-74.5727463,"name":"QUIPILE"},{"id":"25599","idDepto":"25","latitude":4.5253839,"longitude":-74.5965042,"name":"APULO"},{"id":"25612","idDepto":"25","latitude":4.3065944,"longitude":-74.7440186,"name":"RICAURTE"},{"id":"25645","idDepto":"25","latitude":4.5999613,"longitude":-74.3605042,"name":"SAN ANTONIO DEL TEQUENDAMA"},{"id":"25649","idDepto":"25","latitude":4.1406503,"longitude":-74.3637161,"name":"SAN BERNARDO"},{"id":"25658","idDepto":"25","latitude":4.9695859,"longitude":-74.2870178,"name":"SAN FRANCISCO"},{"id":"25662","idDepto":"25","latitude":4.8386221,"longitude":-74.6696777,"name":"SAN JUAN DE RIOSECO"},{"id":"25718","idDepto":"25","latitude":4.9474535,"longitude":-74.4293594,"name":"SASAIMA"},{"id":"25736","idDepto":"25","latitude":5.0075679,"longitude":-73.7937164,"name":"SESQUILE"},{"id":"25740","idDepto":"25","latitude":4.4635568,"longitude":-74.281105,"name":"SIBATE"},{"id":"25743","idDepto":"25","latitude":4.4386759,"longitude":-74.3882294,"name":"SILVANIA"},{"id":"25745","idDepto":"25","latitude":5.5183377,"longitude":-73.8494186,"name":"SIMIJACA"},{"id":"25754","idDepto":"25","latitude":4.534163,"longitude":-74.2378845,"name":"SOACHA"},{"id":"25758","idDepto":"25","latitude":4.8846092,"longitude":-73.9768448,"name":"SOPO"},{"id":"25769","idDepto":"25","latitude":4.9679947,"longitude":-74.177002,"name":"SUBACHOQUE"},{"id":"25772","idDepto":"25","latitude":5.1377339,"longitude":-73.790657,"name":"SUESCA"},{"id":"25777","idDepto":"25","latitude":5.0659814,"longitude":-74.2466431,"name":"SUPATA"},{"id":"25779","idDepto":"25","latitude":5.4445467,"longitude":-73.831543,"name":"SUSA"},{"id":"25781","idDepto":"25","latitude":5.2438335,"longitude":-73.8687668,"name":"SUTATAUSA"},{"id":"25785","idDepto":"25","latitude":4.9516897,"longitude":-74.1001816,"name":"TABIO"},{"id":"25793","idDepto":"25","latitude":5.1908069,"longitude":-73.9603195,"name":"TAUSA"},{"id":"25797","idDepto":"25","latitude":4.652524,"longitude":-74.4104233,"name":"TENA"},{"id":"25799","idDepto":"25","latitude":4.8374205,"longitude":-74.1611786,"name":"TENJO"},{"id":"25805","idDepto":"25","latitude":4.3231716,"longitude":-74.5007706,"name":"TIBACUY"},{"id":"25815","idDepto":"25","latitude":4.4551172,"longitude":-74.6662903,"name":"TOCAIMA"},{"id":"25817","idDepto":"25","latitude":4.9690657,"longitude":-73.9431686,"name":"TOCANCIPA"},{"id":"25823","idDepto":"25","latitude":5.3673038,"longitude":-74.3086319,"name":"TOPAIPI"},{"id":"25839","idDepto":"25","latitude":4.8110108,"longitude":-73.4844131,"name":"UBALA"},{"id":"25841","idDepto":"25","latitude":4.495594,"longitude":-73.9890442,"name":"UBAQUE"},{"id":"25843","idDepto":"25","latitude":5.3158827,"longitude":-73.8324585,"name":"UBATE"},{"id":"25845","idDepto":"25","latitude":4.3126979,"longitude":-74.0774307,"name":"UNE"},{"id":"25851","idDepto":"25","latitude":5.1999831,"longitude":-74.4897156,"name":"UTICA"},{"id":"25862","idDepto":"25","latitude":5.1368632,"longitude":-74.324913,"name":"VERGARA"},{"id":"25867","idDepto":"25","latitude":4.8888569,"longitude":-74.5697403,"name":"VIANI"},{"id":"25871","idDepto":"25","latitude":5.2767191,"longitude":-74.2042007,"name":"VILLAGOMEZ"},{"id":"25873","idDepto":"25","latitude":5.230607,"longitude":-73.5894775,"name":"VILLAPINZON"},{"id":"25875","idDepto":"25","latitude":5.0149002,"longitude":-74.5017776,"name":"VILLETA"},{"id":"25878","idDepto":"25","latitude":4.4386935,"longitude":-74.5035019,"name":"VIOTA"},{"id":"25885","idDepto":"25","latitude":5.5978684,"longitude":-74.3670425,"name":"YACOPI"},{"id":"25898","idDepto":"25","latitude":4.7543583,"longitude":-74.4046402,"name":"ZIPACON"},{"id":"25899","idDepto":"25","latitude":5.0465794,"longitude":-74.0368423,"name":"ZIPAQUIRA"},{"id":"27001","idDepto":"27","latitude":5.9423981,"longitude":-76.7067719,"name":"QUIBDO"},{"id":"27006","idDepto":"27","latitude":8.4166279,"longitude":-77.2896805,"name":"ACANDI"},{"id":"27025","idDepto":"27","latitude":5.6477132,"longitude":-77.0969315,"name":"ALTO BAUDO"},{"id":"27050","idDepto":"27","latitude":5.553771,"longitude":-76.607811,"name":"ATRATO (YUTO)"},{"id":"27073","idDepto":"27","latitude":5.4863877,"longitude":-76.2352829,"name":"BAGADO"},{"id":"27075","idDepto":"27","latitude":6.3166151,"longitude":-77.3599701,"name":"BAHIA SOLANO (MUTIS)"},{"id":"27077","idDepto":"27","latitude":5.0101013,"longitude":-77.2121582,"name":"BAJO BAUDO (PIZARRO)"},{"id":"27086","idDepto":"27","latitude":7.3533659,"longitude":-76.804306,"name":"BELEN DE BAJIRA"},{"id":"27099","idDepto":"27","latitude":6.4755111,"longitude":-77.102562,"name":"BOJAYA (BELLAVISTA)"},{"id":"27135","idDepto":"27","latitude":5.3409505,"longitude":-76.7733459,"name":"EL CANTON DE SAN PABLO (MANAGRU)"},{"id":"27150","idDepto":"27","latitude":7.0134354,"longitude":-76.9932404,"name":"CARMEN DEL DARIEN (CURBARADO)"},{"id":"27160","idDepto":"27","latitude":5.3796134,"longitude":-76.5465622,"name":"CERTEGUI"},{"id":"27205","idDepto":"27","latitude":5.1082706,"longitude":-76.4459991,"name":"CONDOTO"},{"id":"27245","idDepto":"27","latitude":5.7881742,"longitude":-76.2167664,"name":"EL CARMEN DE ATRATO"},{"id":"27250","idDepto":"27","latitude":4.2586603,"longitude":-76.9653549,"name":"EL LITORAL DEL SAN JUAN (DOCORDO)"},{"id":"27361","idDepto":"27","latitude":4.7072906,"longitude":-76.8681259,"name":"ISTMINA"},{"id":"27372","idDepto":"27","latitude":7.1094699,"longitude":-77.6933136,"name":"JURADO"},{"id":"27413","idDepto":"27","latitude":5.5688901,"longitude":-76.3983994,"name":"LLORO"},{"id":"27425","idDepto":"27","latitude":0,"longitude":0,"name":"MEDIO ATRATO (BETE, TANGUI)"},{"id":"27430","idDepto":"27","latitude":5.1043015,"longitude":-76.9898224,"name":"MEDIO BAUDO (BOCA DE PEPE)"},{"id":"27450","idDepto":"27","latitude":4.8296461,"longitude":-76.7935028,"name":"MEDIO SAN JUAN (ANDAGOYA)"},{"id":"27491","idDepto":"27","latitude":4.8481436,"longitude":-76.6132126,"name":"NOVITA"},{"id":"27495","idDepto":"27","latitude":5.680192,"longitude":-77.2997284,"name":"NUQUI"},{"id":"27580","idDepto":"27","latitude":5.1747828,"longitude":-76.4649658,"name":"RIO IRO (SANTA RITA)"},{"id":"27600","idDepto":"27","latitude":5.563035,"longitude":-76.8178635,"name":"RIO QUITO"},{"id":"27615","idDepto":"27","latitude":7.3801494,"longitude":-77.3408661,"name":"RIOSUCIO"},{"id":"27660","idDepto":"27","latitude":4.9641132,"longitude":-76.2910156,"name":"SAN JOSE DEL PALMAR"},{"id":"27745","idDepto":"27","latitude":4.5973687,"longitude":-76.5699768,"name":"SIPI"},{"id":"27787","idDepto":"27","latitude":5.283545,"longitude":-76.3723373,"name":"TADO"},{"id":"27800","idDepto":"27","latitude":8.1093483,"longitude":-77.1127014,"name":"UNGUIA"},{"id":"27810","idDepto":"27","latitude":5.290544,"longitude":-76.6450119,"name":"UNION PANAMERICANA (LAS ANIMAS)"},{"id":"41001","idDepto":"41","latitude":3.0082426,"longitude":-75.3088989,"name":"NEIVA"},{"id":"41006","idDepto":"41","latitude":1.6678684,"longitude":-76.004509,"name":"ACEVEDO"},{"id":"41013","idDepto":"41","latitude":2.2643542,"longitude":-75.7180405,"name":"AGRADO"},{"id":"41016","idDepto":"41","latitude":3.2658918,"longitude":-75.3593826,"name":"AIPE"},{"id":"41020","idDepto":"41","latitude":2.5165734,"longitude":-75.2414627,"name":"ALGECIRAS"},{"id":"41026","idDepto":"41","latitude":2.0809906,"longitude":-75.7488174,"name":"ALTAMIRA"},{"id":"41078","idDepto":"41","latitude":3.1423423,"longitude":-74.9680252,"name":"BARAYA"},{"id":"41132","idDepto":"41","latitude":2.649632,"longitude":-75.3225861,"name":"CAMPOALEGRE"},{"id":"41206","idDepto":"41","latitude":3.4273431,"longitude":-74.6952286,"name":"COLOMBIA"},{"id":"41244","idDepto":"41","latitude":2.0121653,"longitude":-75.9564133,"name":"ELIAS"},{"id":"41298","idDepto":"41","latitude":2.1608508,"longitude":-75.5742188,"name":"GARZON"},{"id":"41306","idDepto":"41","latitude":2.3751328,"longitude":-75.527977,"name":"GIGANTE"},{"id":"41319","idDepto":"41","latitude":1.9880586,"longitude":-75.6925049,"name":"GUADALUPE"},{"id":"41349","idDepto":"41","latitude":2.5349333,"longitude":-75.4451141,"name":"HOBO"},{"id":"41357","idDepto":"41","latitude":2.7140675,"longitude":-75.7440109,"name":"IQUIRA"},{"id":"41359","idDepto":"41","latitude":1.9828675,"longitude":-76.2604218,"name":"ISNOS"},{"id":"41378","idDepto":"41","latitude":2.1783609,"longitude":-76.1169357,"name":"LA ARGENTINA"},{"id":"41396","idDepto":"41","latitude":2.3281844,"longitude":-76.0667725,"name":"LA PLATA"},{"id":"41483","idDepto":"41","latitude":2.5998716,"longitude":-75.8082886,"name":"NATAGA"},{"id":"41503","idDepto":"41","latitude":2.0720475,"longitude":-76.0502472,"name":"OPORAPA"},{"id":"41518","idDepto":"41","latitude":2.3984625,"longitude":-75.7352676,"name":"PAICOL"},{"id":"41524","idDepto":"41","latitude":2.8926656,"longitude":-75.4377289,"name":"PALERMO"},{"id":"41530","idDepto":"41","latitude":1.6614833,"longitude":-76.1768188,"name":"PALESTINA"},{"id":"41548","idDepto":"41","latitude":2.247211,"longitude":-75.827919,"name":"PITAL"},{"id":"41551","idDepto":"41","latitude":1.8344252,"longitude":-76.1094742,"name":"PITALITO"},{"id":"41615","idDepto":"41","latitude":2.7658768,"longitude":-75.1962662,"name":"RIVERA"},{"id":"41660","idDepto":"41","latitude":2.0906954,"longitude":-76.217392,"name":"SALADOBLANCO"},{"id":"41668","idDepto":"41","latitude":1.8912005,"longitude":-76.4088821,"name":"SAN AGUSTIN"},{"id":"41676","idDepto":"41","latitude":2.9770031,"longitude":-75.6980515,"name":"SANTA MARIA"},{"id":"41770","idDepto":"41","latitude":1.8660617,"longitude":-75.8129959,"name":"SUAZA"},{"id":"41791","idDepto":"41","latitude":2.1232269,"longitude":-75.8695602,"name":"TARQUI"},{"id":"41797","idDepto":"41","latitude":2.53089,"longitude":-75.6922302,"name":"TESALIA"},{"id":"41799","idDepto":"41","latitude":3.0276558,"longitude":-75.091774,"name":"TELLO"},{"id":"41801","idDepto":"41","latitude":2.8277771,"longitude":-75.7207565,"name":"TERUEL"},{"id":"41807","idDepto":"41","latitude":1.936628,"longitude":-75.9160156,"name":"TIMANA"},{"id":"41872","idDepto":"41","latitude":3.2827075,"longitude":-75.1364899,"name":"VILLAVIEJA"},{"id":"41885","idDepto":"41","latitude":2.6441336,"longitude":-75.5124054,"name":"YAGUARA"},{"id":"44001","idDepto":"44","latitude":11.2652817,"longitude":-72.9579544,"name":"RIOHACHA"},{"id":"44035","idDepto":"44","latitude":11.2386513,"longitude":-72.5414047,"name":"ALBANIA"},{"id":"44078","idDepto":"44","latitude":10.9801426,"longitude":-72.6824493,"name":"BARRANCAS"},{"id":"44090","idDepto":"44","latitude":11.1073198,"longitude":-73.4312973,"name":"DIBULLA"},{"id":"44098","idDepto":"44","latitude":10.9275331,"longitude":-72.9615631,"name":"DISTRACCION"},{"id":"44110","idDepto":"44","latitude":10.6152859,"longitude":-72.8893967,"name":"EL MOLINO"},{"id":"44279","idDepto":"44","latitude":10.8068228,"longitude":-72.786377,"name":"FONSECA"},{"id":"44378","idDepto":"44","latitude":11.109333,"longitude":-72.7430038,"name":"HATO NUEVO"},{"id":"44420","idDepto":"44","latitude":10.4645176,"longitude":-73.0344925,"name":"LA JAGUA DEL PILAR"},{"id":"44430","idDepto":"44","latitude":11.3803406,"longitude":-72.3013687,"name":"MAICAO"},{"id":"44560","idDepto":"44","latitude":11.6244726,"longitude":-72.5862122,"name":"MANAURE"},{"id":"44650","idDepto":"44","latitude":10.7974739,"longitude":-73.0620804,"name":"SAN JUAN DEL CESAR"},{"id":"44847","idDepto":"44","latitude":12.0138721,"longitude":-71.7611084,"name":"URIBIA"},{"id":"44855","idDepto":"44","latitude":10.4999104,"longitude":-72.9545059,"name":"URUMITA"},{"id":"44874","idDepto":"44","latitude":10.5809212,"longitude":-72.9734268,"name":"VILLANUEVA"},{"id":"47001","idDepto":"47","latitude":11.1357946,"longitude":-73.9008713,"name":"SANTA MARTA"},{"id":"47030","idDepto":"47","latitude":10.2558041,"longitude":-74.1161118,"name":"ALGARROBO"},{"id":"47053","idDepto":"47","latitude":10.6547756,"longitude":-73.8953171,"name":"ARACATACA"},{"id":"47058","idDepto":"47","latitude":9.8362579,"longitude":-74.0926819,"name":"ARIGUANI (EL DIFICIL)"},{"id":"47161","idDepto":"47","latitude":10.2972116,"longitude":-74.8277817,"name":"CERRO DE SAN ANTONIO"},{"id":"47170","idDepto":"47","latitude":10.103075,"longitude":-74.535965,"name":"CHIVOLO"},{"id":"47189","idDepto":"47","latitude":10.8974571,"longitude":-74.0557327,"name":"CIENAGA"},{"id":"47205","idDepto":"47","latitude":10.2364683,"longitude":-74.7930527,"name":"CONCORDIA"},{"id":"47245","idDepto":"47","latitude":9.1356096,"longitude":-73.9887161,"name":"EL BANCO"},{"id":"47258","idDepto":"47","latitude":10.3448534,"longitude":-74.6876602,"name":"EL PIÑON"},{"id":"47268","idDepto":"47","latitude":10.6771173,"longitude":-74.3456345,"name":"EL RETEN"},{"id":"47288","idDepto":"47","latitude":10.4645996,"longitude":-73.9178848,"name":"FUNDACION"},{"id":"47318","idDepto":"47","latitude":9.2461863,"longitude":-74.1528854,"name":"GUAMAL"},{"id":"47460","idDepto":"47","latitude":9.7383881,"longitude":-74.3383865,"name":"NUEVA GRANADA"},{"id":"47541","idDepto":"47","latitude":10.158349,"longitude":-74.8402252,"name":"PEDRAZA"},{"id":"47545","idDepto":"47","latitude":9.5266294,"longitude":-74.1532516,"name":"PIJIÑO DEL CARMEN"},{"id":"47551","idDepto":"47","latitude":10.4398108,"longitude":-74.4244766,"name":"PIVIJAY"},{"id":"47555","idDepto":"47","latitude":9.7784233,"longitude":-74.6011505,"name":"PLATO"},{"id":"47570","idDepto":"47","latitude":10.8572531,"longitude":-74.3688354,"name":"PUEBLOVIEJO"},{"id":"47605","idDepto":"47","latitude":10.6536407,"longitude":-74.5921021,"name":"REMOLINO"},{"id":"47660","idDepto":"47","latitude":10.1121788,"longitude":-74.2707901,"name":"SABANAS DE SAN ANGEL"},{"id":"47675","idDepto":"47","latitude":10.5168791,"longitude":-74.7358246,"name":"SALAMINA"},{"id":"47692","idDepto":"47","latitude":9.3666887,"longitude":-74.1937103,"name":"SAN SEBASTIAN DE BUENAVISTA"},{"id":"47703","idDepto":"47","latitude":9.3364811,"longitude":-74.358429,"name":"SAN ZENON"},{"id":"47707","idDepto":"47","latitude":9.5329695,"longitude":-74.3276215,"name":"SANTA ANA"},{"id":"47720","idDepto":"47","latitude":9.5233459,"longitude":-74.6568375,"name":"SANTA BARBARA DE PINTO"},{"id":"47745","idDepto":"47","latitude":10.9002972,"longitude":-74.6402588,"name":"SITIONUEVO"},{"id":"47798","idDepto":"47","latitude":9.9286423,"longitude":-74.7363892,"name":"TENERIFE"},{"id":"47960","idDepto":"47","latitude":10.1231928,"longitude":-74.7002258,"name":"ZAPAYAN"},{"id":"47980","idDepto":"47","latitude":10.8047943,"longitude":-74.1878662,"name":"ZONA BANANERA"},{"id":"50001","idDepto":"50","latitude":4.090313,"longitude":-73.4769135,"name":"VILLAVICENCIO"},{"id":"50006","idDepto":"50","latitude":4.0101094,"longitude":-73.7209854,"name":"ACACIAS"},{"id":"5001","idDepto":"5","latitude":6.2618289,"longitude":-75.6035233,"name":"MEDELLIN"},{"id":"5002","idDepto":"5","latitude":5.8088331,"longitude":-75.4335861,"name":"ABEJORRAL"},{"id":"5004","idDepto":"5","latitude":6.623126,"longitude":-76.0648117,"name":"ABRIAQUI"},{"id":"50110","idDepto":"50","latitude":4.498703,"longitude":-72.9731064,"name":"BARRANCA DE UPIA"},{"id":"50124","idDepto":"50","latitude":4.3102226,"longitude":-72.9731216,"name":"CABUYARO"},{"id":"50150","idDepto":"50","latitude":3.8076861,"longitude":-73.5285797,"name":"CASTILLA LA NUEVA"},{"id":"5021","idDepto":"5","latitude":6.3565235,"longitude":-75.0805969,"name":"ALEJANDRIA"},{"id":"50223","idDepto":"50","latitude":3.8253851,"longitude":-74.0689468,"name":"CUBARRAL"},{"id":"50226","idDepto":"50","latitude":4.2340164,"longitude":-73.3170395,"name":"CUMARAL"},{"id":"50245","idDepto":"50","latitude":4.3536487,"longitude":-73.7125778,"name":"EL CALVARIO"},{"id":"50251","idDepto":"50","latitude":3.6229644,"longitude":-73.8830872,"name":"EL CASTILLO"},{"id":"50270","idDepto":"50","latitude":3.7076516,"longitude":-73.810379,"name":"EL DORADO"},{"id":"50287","idDepto":"50","latitude":3.3836396,"longitude":-73.5908127,"name":"FUENTE DE ORO"},{"id":"5030","idDepto":"5","latitude":6.0240068,"longitude":-75.7017212,"name":"AMAGA"},{"id":"5031","idDepto":"5","latitude":6.9831181,"longitude":-74.9740677,"name":"AMALFI"},{"id":"50313","idDepto":"50","latitude":3.5007184,"longitude":-73.7414474,"name":"GRANADA"},{"id":"50318","idDepto":"50","latitude":3.9500799,"longitude":-73.9623718,"name":"GUAMAL"},{"id":"50325","idDepto":"50","latitude":3.1264837,"longitude":-71.9479141,"name":"MAPIRIPAN"},{"id":"50330","idDepto":"50","latitude":3.1759467,"longitude":-74.1319046,"name":"MESETAS"},{"id":"5034","idDepto":"5","latitude":5.6137805,"longitude":-75.9430923,"name":"ANDES"},{"id":"50350","idDepto":"50","latitude":2.1577632,"longitude":-74.0521622,"name":"LA MACARENA"},{"id":"5036","idDepto":"5","latitude":6.1180906,"longitude":-75.7101135,"name":"ANGELOPOLIS"},{"id":"50370","idDepto":"50","latitude":3.0319676,"longitude":-74.4381866,"name":"URIBE"},{"id":"5038","idDepto":"5","latitude":6.8699689,"longitude":-75.3229828,"name":"ANGOSTURA"},{"id":"5040","idDepto":"5","latitude":7.2015414,"longitude":-75.1029739,"name":"ANORI"},{"id":"50400","idDepto":"50","latitude":3.6032915,"longitude":-74.0863953,"name":"LEJANIAS"},{"id":"5042","idDepto":"5","latitude":6.5334287,"longitude":-75.8960419,"name":"SANTA FE DE ANTIOQUIA"},{"id":"5044","idDepto":"5","latitude":6.3056536,"longitude":-75.9119034,"name":"ANZA"},{"id":"5045","idDepto":"5","latitude":7.8970895,"longitude":-76.5662079,"name":"APARTADO"},{"id":"50450","idDepto":"50","latitude":2.7596664,"longitude":-72.7318344,"name":"PUERTO CONCORDIA"},{"id":"5051","idDepto":"5","latitude":8.6232548,"longitude":-76.4195099,"name":"ARBOLETES"},{"id":"5055","idDepto":"5","latitude":5.7171345,"longitude":-75.0939178,"name":"ARGELIA"},{"id":"50568","idDepto":"50","latitude":4.0146847,"longitude":-71.6381989,"name":"PUERTO GAITAN"},{"id":"50573","idDepto":"50","latitude":4.050528,"longitude":-72.6430054,"name":"PUERTO LOPEZ"},{"id":"50577","idDepto":"50","latitude":3.196579,"longitude":-73.2286453,"name":"PUERTO LLERAS"},{"id":"5059","idDepto":"5","latitude":6.1588244,"longitude":-75.8054733,"name":"ARMENIA"},{"id":"50590","idDepto":"50","latitude":2.7596881,"longitude":-73.138443,"name":"PUERTO RICO"},{"id":"50606","idDepto":"50","latitude":4.2486744,"longitude":-73.4910736,"name":"RESTREPO"},{"id":"50680","idDepto":"50","latitude":3.8520961,"longitude":-73.2753677,"name":"SAN CARLOS DE GUAROA"},{"id":"50683","idDepto":"50","latitude":3.2848139,"longitude":-73.8151398,"name":"SAN JUAN DE ARAMA"},{"id":"50686","idDepto":"50","latitude":4.4581099,"longitude":-73.6809006,"name":"SAN JUANITO"},{"id":"50689","idDepto":"50","latitude":3.5699461,"longitude":-72.957901,"name":"SAN MARTIN"},{"id":"50711","idDepto":"50","latitude":2.8241868,"longitude":-73.6816254,"name":"VISTAHERMOSA"},{"id":"5079","idDepto":"5","latitude":6.4434042,"longitude":-75.3186188,"name":"BARBOSA"},{"id":"5086","idDepto":"5","latitude":6.6390042,"longitude":-75.633049,"name":"BELMIRA"},{"id":"5088","idDepto":"5","latitude":6.3633685,"longitude":-75.5863953,"name":"BELLO"},{"id":"5091","idDepto":"5","latitude":5.7149076,"longitude":-75.9921036,"name":"BETANIA"},{"id":"5093","idDepto":"5","latitude":6.1791854,"longitude":-75.9565277,"name":"BETULIA"},{"id":"5101","idDepto":"5","latitude":5.8327746,"longitude":-76.0303192,"name":"CIUDAD BOLIVAR"},{"id":"5107","idDepto":"5","latitude":7.1210914,"longitude":-75.5541153,"name":"BRICEÑO"},{"id":"5113","idDepto":"5","latitude":6.8144364,"longitude":-75.9007568,"name":"BURITICA"},{"id":"5120","idDepto":"5","latitude":7.6876225,"longitude":-75.207428,"name":"CACERES"},{"id":"5125","idDepto":"5","latitude":6.4230266,"longitude":-75.9764862,"name":"CAICEDO"},{"id":"5129","idDepto":"5","latitude":6.046381,"longitude":-75.6192093,"name":"CALDAS"},{"id":"5134","idDepto":"5","latitude":7.0379629,"longitude":-75.2818375,"name":"CAMPAMENTO"},{"id":"5138","idDepto":"5","latitude":6.829205,"longitude":-76.0001678,"name":"CAÑASGORDAS"},{"id":"5142","idDepto":"5","latitude":6.3197656,"longitude":-74.7077637,"name":"CARACOLI"},{"id":"5145","idDepto":"5","latitude":5.5545516,"longitude":-75.6443558,"name":"CARAMANTA"},{"id":"5147","idDepto":"5","latitude":7.7820072,"longitude":-76.6546783,"name":"CAREPA"},{"id":"5148","idDepto":"5","latitude":5.9706378,"longitude":-75.250351,"name":"CARMEN DE VIBORAL"},{"id":"5150","idDepto":"5","latitude":6.7618656,"longitude":-75.2898788,"name":"CAROLINA"},{"id":"5154","idDepto":"5","latitude":7.8647423,"longitude":-75.0018158,"name":"CAUCASIA"},{"id":"5172","idDepto":"5","latitude":7.6327724,"longitude":-76.6394424,"name":"CHIGORODO"},{"id":"5190","idDepto":"5","latitude":6.5548816,"longitude":-75.0722427,"name":"CISNEROS"},{"id":"5197","idDepto":"5","latitude":6.0203619,"longitude":-75.1604996,"name":"COCORNA"},{"id":"52001","idDepto":"52","latitude":1.0656132,"longitude":-77.1763611,"name":"PASTO"},{"id":"52019","idDepto":"52","latitude":1.4711161,"longitude":-77.0445175,"name":"ALBAN (SAN JOSE)"},{"id":"52022","idDepto":"52","latitude":0.9126287,"longitude":-77.6711426,"name":"ALDANA"},{"id":"52036","idDepto":"52","latitude":1.238448,"longitude":-77.5150909,"name":"ANCUYA"},{"id":"52051","idDepto":"52","latitude":1.4822266,"longitude":-77.1063156,"name":"ARBOLEDA (BERRUECOS)"},{"id":"5206","idDepto":"5","latitude":6.3853173,"longitude":-75.2040634,"name":"CONCEPCION"},{"id":"52079","idDepto":"52","latitude":1.4190398,"longitude":-78.173912,"name":"BARBACOAS"},{"id":"52083","idDepto":"52","latitude":1.5896024,"longitude":-77.0235291,"name":"BELEN"},{"id":"5209","idDepto":"5","latitude":6.0580182,"longitude":-75.9005356,"name":"CONCORDIA"},{"id":"52110","idDepto":"52","latitude":1.3248228,"longitude":-77.1072311,"name":"BUESACO"},{"id":"5212","idDepto":"5","latitude":6.35499,"longitude":-75.5013657,"name":"COPACABANA"},{"id":"52203","idDepto":"52","latitude":1.6374015,"longitude":-77.0311508,"name":"COLON (GENOVA)"},{"id":"52207","idDepto":"52","latitude":1.210848,"longitude":-77.4196472,"name":"CONSACA"},{"id":"52210","idDepto":"52","latitude":0.930774,"longitude":-77.509697,"name":"CONTADERO"},{"id":"52215","idDepto":"52","latitude":0.791125,"longitude":-77.3587418,"name":"CORDOBA"},{"id":"52224","idDepto":"52","latitude":0.8634217,"longitude":-77.7050552,"name":"CUASPUD (CARLOSAMA)"},{"id":"52227","idDepto":"52","latitude":0.9047396,"longitude":-77.9444199,"name":"CUMBAL"},{"id":"52233","idDepto":"52","latitude":1.7274702,"longitude":-77.5841217,"name":"CUMBITARA"},{"id":"52240","idDepto":"52","latitude":1.3899477,"longitude":-77.2509613,"name":"CHACHAGUI"},{"id":"52250","idDepto":"52","latitude":2.1803012,"longitude":-77.8373871,"name":"EL CHARCO"},{"id":"52254","idDepto":"52","latitude":1.519841,"longitude":-77.4162521,"name":"EL PEÑOL"},{"id":"52256","idDepto":"52","latitude":1.8388109,"longitude":-77.4283295,"name":"EL ROSARIO"},{"id":"52258","idDepto":"52","latitude":1.3900088,"longitude":-76.9363632,"name":"EL TABLON"},{"id":"52260","idDepto":"52","latitude":1.4300071,"longitude":-77.3682785,"name":"EL TAMBO"},{"id":"52287","idDepto":"52","latitude":0.9381794,"longitude":-77.3412552,"name":"FUNES"},{"id":"52317","idDepto":"52","latitude":0.9729514,"longitude":-77.7105789,"name":"GUACHUCAL"},{"id":"52320","idDepto":"52","latitude":1.1503361,"longitude":-77.5123138,"name":"GUAITARILLA"},{"id":"52323","idDepto":"52","latitude":0.924404,"longitude":-77.5593338,"name":"GUALMATAN"},{"id":"5234","idDepto":"5","latitude":7.0127544,"longitude":-76.2810669,"name":"DABEIBA"},{"id":"52352","idDepto":"52","latitude":0.9796812,"longitude":-77.5067902,"name":"ILES"},{"id":"52354","idDepto":"52","latitude":1.0721486,"longitude":-77.4807816,"name":"IMUES"},{"id":"52356","idDepto":"52","latitude":0.5558557,"longitude":-77.3326569,"name":"IPIALES"},{"id":"5237","idDepto":"5","latitude":6.5196095,"longitude":-75.33741,"name":"DON MATIAS"},{"id":"52378","idDepto":"52","latitude":1.5757225,"longitude":-76.9012222,"name":"LA CRUZ"},{"id":"52381","idDepto":"52","latitude":1.3316193,"longitude":-77.3696747,"name":"LA FLORIDA"},{"id":"52385","idDepto":"52","latitude":1.5491216,"longitude":-77.67276,"name":"LA LLANADA"},{"id":"52390","idDepto":"52","latitude":2.3783283,"longitude":-78.2280426,"name":"LA TOLA"},{"id":"52399","idDepto":"52","latitude":1.6308891,"longitude":-77.12146,"name":"LA UNION"},{"id":"5240","idDepto":"5","latitude":6.3262091,"longitude":-75.7808609,"name":"EBEJICO"},{"id":"52405","idDepto":"52","latitude":1.9346334,"longitude":-77.3191757,"name":"LEIVA"},{"id":"52411","idDepto":"52","latitude":1.3975428,"longitude":-77.5051727,"name":"LINARES"},{"id":"52418","idDepto":"52","latitude":1.6527301,"longitude":-77.710556,"name":"LOS ANDES (SOTOMAYOR)"},{"id":"52427","idDepto":"52","latitude":1.885042,"longitude":-78.044342,"name":"MAGUI (PAYAN)"},{"id":"52435","idDepto":"52","latitude":1.1114008,"longitude":-77.8475266,"name":"MALLAMA (PIEDRANCHA)"},{"id":"52473","idDepto":"52","latitude":2.4231155,"longitude":-78.444809,"name":"MOSQUERA"},{"id":"52490","idDepto":"52","latitude":2.3327734,"longitude":-78.3115311,"name":"OLAYA HERRERA (BOCAS DE SATINGA)"},{"id":"5250","idDepto":"5","latitude":7.7124419,"longitude":-74.6513748,"name":"EL BAGRE"},{"id":"52506","idDepto":"52","latitude":1.0306875,"longitude":-77.5294495,"name":"OSPINA"},{"id":"52520","idDepto":"52","latitude":2.1150553,"longitude":-78.5653839,"name":"FRANCISCO PIZARRO (SALAHONDA)"},{"id":"52540","idDepto":"52","latitude":1.7398932,"longitude":-77.4760208,"name":"POLICARPA"},{"id":"52560","idDepto":"52","latitude":0.7376232,"longitude":-77.4165497,"name":"POTOSI"},{"id":"52565","idDepto":"52","latitude":1.2259105,"longitude":-77.5865707,"name":"PROVIDENCIA"},{"id":"52573","idDepto":"52","latitude":0.8385237,"longitude":-77.2983398,"name":"PUERRES"},{"id":"52585","idDepto":"52","latitude":0.917128,"longitude":-77.6094513,"name":"PUPIALES"},{"id":"52612","idDepto":"52","latitude":1.1702635,"longitude":-78.0738678,"name":"RICAURTE"},{"id":"52621","idDepto":"52","latitude":1.8702387,"longitude":-78.3699036,"name":"ROBERTO PAYAN"},{"id":"5264","idDepto":"5","latitude":6.5986075,"longitude":-75.5507813,"name":"ENTRERRIOS"},{"id":"5266","idDepto":"5","latitude":6.1427231,"longitude":-75.5647507,"name":"ENVIGADO"},{"id":"52678","idDepto":"52","latitude":1.4249886,"longitude":-77.6980209,"name":"SAMANIEGO"},{"id":"52683","idDepto":"52","latitude":1.2949619,"longitude":-77.4437561,"name":"SANDONA"},{"id":"52685","idDepto":"52","latitude":1.5285197,"longitude":-76.9983521,"name":"SAN BERNARDO"},{"id":"52687","idDepto":"52","latitude":1.5422949,"longitude":-77.1978531,"name":"SAN LORENZO"},{"id":"52693","idDepto":"52","latitude":1.6777982,"longitude":-76.9743576,"name":"SAN PABLO"},{"id":"52694","idDepto":"52","latitude":1.5382694,"longitude":-77.078476,"name":"SAN PEDRO DE CARTAGO (CARTAGO)"},{"id":"52696","idDepto":"52","latitude":2.3013325,"longitude":-77.8556213,"name":"SANTA BARBARA (ISCUANDE)"},{"id":"52699","idDepto":"52","latitude":1.2677358,"longitude":-77.7153778,"name":"SANTACRUZ"},{"id":"52720","idDepto":"52","latitude":1.0365245,"longitude":-77.6581573,"name":"SAPUYES"},{"id":"52786","idDepto":"52","latitude":1.5941104,"longitude":-77.308609,"name":"TAMINANGO"},{"id":"52788","idDepto":"52","latitude":1.0703386,"longitude":-77.32901,"name":"TANGUA"},{"id":"5282","idDepto":"5","latitude":5.8790035,"longitude":-75.6724548,"name":"FREDONIA"},{"id":"52835","idDepto":"52","latitude":2.3090842,"longitude":-78.5708618,"name":"TUMACO"},{"id":"52838","idDepto":"52","latitude":1.1319536,"longitude":-77.6106491,"name":"TUQUERRES"},{"id":"5284","idDepto":"5","latitude":6.6990104,"longitude":-76.3075027,"name":"FRONTINO"},{"id":"52885","idDepto":"52","latitude":1.1257349,"longitude":-77.4074554,"name":"YACUANQUER"},{"id":"5306","idDepto":"5","latitude":6.6449327,"longitude":-75.9418488,"name":"GIRALDO"},{"id":"5308","idDepto":"5","latitude":6.3847942,"longitude":-75.439064,"name":"GIRARDOTA"},{"id":"5310","idDepto":"5","latitude":6.7058768,"longitude":-75.1877823,"name":"GOMEZ PLATA"},{"id":"5313","idDepto":"5","latitude":6.1210585,"longitude":-75.1179962,"name":"GRANADA"},{"id":"5315","idDepto":"5","latitude":6.8768554,"longitude":-75.1982193,"name":"GUADALUPE"},{"id":"5318","idDepto":"5","latitude":6.2655301,"longitude":-75.4249573,"name":"GUARNE"},{"id":"5321","idDepto":"5","latitude":6.2382064,"longitude":-75.1491776,"name":"GUATAPE"},{"id":"5347","idDepto":"5","latitude":6.2153916,"longitude":-75.7415237,"name":"HELICONIA"},{"id":"5353","idDepto":"5","latitude":5.7920022,"longitude":-75.9036942,"name":"HISPANIA"},{"id":"5360","idDepto":"5","latitude":6.1787448,"longitude":-75.6098785,"name":"ITAGUI"},{"id":"5361","idDepto":"5","latitude":7.2640586,"longitude":-75.8515854,"name":"ITUANGO"},{"id":"5364","idDepto":"5","latitude":5.5847421,"longitude":-75.8222427,"name":"JARDIN"},{"id":"5368","idDepto":"5","latitude":5.7677484,"longitude":-75.7586365,"name":"JERICO"},{"id":"5376","idDepto":"5","latitude":6.0022063,"longitude":-75.4193878,"name":"LA CEJA"},{"id":"5380","idDepto":"5","latitude":6.1487617,"longitude":-75.6465988,"name":"LA ESTRELLA"},{"id":"5390","idDepto":"5","latitude":5.7524972,"longitude":-75.6094589,"name":"LA PINTADA"},{"id":"5400","idDepto":"5","latitude":5.9480004,"longitude":-75.3494568,"name":"LA UNION"},{"id":"54001","idDepto":"54","latitude":8.1034803,"longitude":-72.4989166,"name":"CUCUTA"},{"id":"54003","idDepto":"54","latitude":8.0172625,"longitude":-73.1581421,"name":"ABREGO"},{"id":"54051","idDepto":"54","latitude":7.617445,"longitude":-72.8563004,"name":"ARBOLEDAS"},{"id":"54099","idDepto":"54","latitude":7.6310725,"longitude":-72.6587982,"name":"BOCHALEMA"},{"id":"54109","idDepto":"54","latitude":8.0830069,"longitude":-72.9294662,"name":"BUCARASICA"},{"id":"5411","idDepto":"5","latitude":6.7269201,"longitude":-75.7773285,"name":"LIBORINA"},{"id":"54125","idDepto":"54","latitude":7.2714567,"longitude":-72.6460114,"name":"CACOTA"},{"id":"54128","idDepto":"54","latitude":7.6912293,"longitude":-73.1323853,"name":"CACHIRA"},{"id":"54172","idDepto":"54","latitude":7.587625,"longitude":-72.5828629,"name":"CHINACOTA"},{"id":"54174","idDepto":"54","latitude":7.0608006,"longitude":-72.5181351,"name":"CHITAGA"},{"id":"54206","idDepto":"54","latitude":8.8598413,"longitude":-73.208725,"name":"CONVENCION"},{"id":"54223","idDepto":"54","latitude":7.5016174,"longitude":-72.7946854,"name":"CUCUTILLA"},{"id":"54239","idDepto":"54","latitude":7.7496853,"longitude":-72.6675186,"name":"DURANIA"},{"id":"54245","idDepto":"54","latitude":8.8888702,"longitude":-73.3343124,"name":"El Carmen"},{"id":"5425","idDepto":"5","latitude":6.5270357,"longitude":-74.7164459,"name":"MACEO"},{"id":"54250","idDepto":"54","latitude":8.6786289,"longitude":-73.0323563,"name":"EL TARRA"},{"id":"54261","idDepto":"54","latitude":8.0808725,"longitude":-72.6364059,"name":"EL ZULIA"},{"id":"54313","idDepto":"54","latitude":7.9053173,"longitude":-72.8032532,"name":"GRAMALOTE"},{"id":"54344","idDepto":"54","latitude":8.3619366,"longitude":-73.0764771,"name":"HACARI"},{"id":"54347","idDepto":"54","latitude":7.4931154,"longitude":-72.4908066,"name":"HERRAN"},{"id":"54377","idDepto":"54","latitude":7.2659779,"longitude":-72.5160828,"name":"LABATECA"},{"id":"54385","idDepto":"54","latitude":7.7023134,"longitude":-73.3677216,"name":"LA ESPERANZA"},{"id":"54398","idDepto":"54","latitude":8.2570143,"longitude":-73.1896667,"name":"LA PLAYA"},{"id":"5440","idDepto":"5","latitude":6.1834092,"longitude":-75.3031006,"name":"MARINILLA"},{"id":"54405","idDepto":"54","latitude":7.740994,"longitude":-72.5309372,"name":"LOS PATIOS"},{"id":"54418","idDepto":"54","latitude":7.9660654,"longitude":-72.8462143,"name":"LOURDES"},{"id":"54480","idDepto":"54","latitude":7.3182454,"longitude":-72.7658081,"name":"MUTISCUA"},{"id":"54498","idDepto":"54","latitude":8.382041,"longitude":-73.4467392,"name":"OCAÑA"},{"id":"54518","idDepto":"54","latitude":7.3796754,"longitude":-72.6691971,"name":"PAMPLONA"},{"id":"54520","idDepto":"54","latitude":7.486423,"longitude":-72.6301193,"name":"PAMPLONITA"},{"id":"54553","idDepto":"54","latitude":8.2835283,"longitude":-72.4158173,"name":"PUERTO SANTANDER"},{"id":"54599","idDepto":"54","latitude":7.5972066,"longitude":-72.5121994,"name":"RAGONVALIA"},{"id":"54660","idDepto":"54","latitude":7.7752514,"longitude":-72.8648148,"name":"SALAZAR"},{"id":"5467","idDepto":"5","latitude":5.9158316,"longitude":-75.5125885,"name":"MONTEBELLO"},{"id":"54670","idDepto":"54","latitude":8.4530973,"longitude":-73.1556625,"name":"SAN CALIXTO"},{"id":"54673","idDepto":"54","latitude":7.8492022,"longitude":-72.6100845,"name":"SAN CAYETANO"},{"id":"54680","idDepto":"54","latitude":7.8896298,"longitude":-72.7146149,"name":"SANTIAGO"},{"id":"54720","idDepto":"54","latitude":8.2642469,"longitude":-72.8076782,"name":"SARDINATA"},{"id":"54743","idDepto":"54","latitude":7.1660314,"longitude":-72.786438,"name":"SILOS"},{"id":"5475","idDepto":"5","latitude":6.8368645,"longitude":-76.6760788,"name":"MURINDO"},{"id":"5480","idDepto":"5","latitude":7.337007,"longitude":-76.467598,"name":"MUTATA"},{"id":"54800","idDepto":"54","latitude":8.7600946,"longitude":-73.1568527,"name":"TEORAMA"},{"id":"54810","idDepto":"54","latitude":8.7101679,"longitude":-72.8003616,"name":"TIBU"},{"id":"54820","idDepto":"54","latitude":7.2364354,"longitude":-72.3091507,"name":"TOLEDO"},{"id":"5483","idDepto":"5","latitude":5.6005297,"longitude":-75.1919708,"name":"NARIÑO"},{"id":"54871","idDepto":"54","latitude":7.9351959,"longitude":-72.9856873,"name":"VILLACARO"},{"id":"54874","idDepto":"54","latitude":7.7597404,"longitude":-72.4884338,"name":"VILLA DEL ROSARIO"},{"id":"5490","idDepto":"5","latitude":8.5030146,"longitude":-76.6804886,"name":"NECOCLI"},{"id":"5495","idDepto":"5","latitude":8.0094538,"longitude":-74.7798767,"name":"NECHI"},{"id":"5501","idDepto":"5","latitude":6.6042638,"longitude":-75.7658691,"name":"OLAYA"},{"id":"5541","idDepto":"5","latitude":6.2441416,"longitude":-75.2093201,"name":"EL PEÑOL"},{"id":"5543","idDepto":"5","latitude":7.0529037,"longitude":-75.874115,"name":"PEQUE"},{"id":"5576","idDepto":"5","latitude":5.8042307,"longitude":-75.8537598,"name":"PUEBLORRICO"},{"id":"5579","idDepto":"5","latitude":6.4879479,"longitude":-74.5204926,"name":"PUERTO BERRIO"},{"id":"5585","idDepto":"5","latitude":6.126235,"longitude":-74.7017746,"name":"PUERTO NARE"},{"id":"5591","idDepto":"5","latitude":5.9536638,"longitude":-74.6850433,"name":"PUERTO TRIUNFO"},{"id":"5604","idDepto":"5","latitude":7.000515,"longitude":-74.5565262,"name":"REMEDIOS"},{"id":"5607","idDepto":"5","latitude":6.0660787,"longitude":-75.5061874,"name":"EL RETIRO"},{"id":"5615","idDepto":"5","latitude":6.1501036,"longitude":-75.4085617,"name":"RIONEGRO"},{"id":"5628","idDepto":"5","latitude":6.9081149,"longitude":-75.7869034,"name":"SABANALARGA"},{"id":"5631","idDepto":"5","latitude":6.1281457,"longitude":-75.6073303,"name":"SABANETA"},{"id":"5642","idDepto":"5","latitude":5.9850001,"longitude":-76.0140381,"name":"SALGAR"},{"id":"5647","idDepto":"5","latitude":6.9308448,"longitude":-75.6444016,"name":"SAN ANDRES"},{"id":"5649","idDepto":"5","latitude":6.1930709,"longitude":-74.9068604,"name":"SAN CARLOS"},{"id":"5652","idDepto":"5","latitude":5.8813858,"longitude":-74.9699097,"name":"SAN FRANCISCO"},{"id":"5656","idDepto":"5","latitude":6.4380217,"longitude":-75.6962585,"name":"SAN JERONIMO"},{"id":"5658","idDepto":"5","latitude":6.8263998,"longitude":-75.6651688,"name":"SAN JOSE DE LA MONTANA"},{"id":"5659","idDepto":"5","latitude":8.7208281,"longitude":-76.5261078,"name":"SAN JUAN DE URABA"},{"id":"5660","idDepto":"5","latitude":6.0129948,"longitude":-74.9469223,"name":"SAN LUIS"},{"id":"5664","idDepto":"5","latitude":6.4567051,"longitude":-75.5521393,"name":"SAN PEDRO"},{"id":"5665","idDepto":"5","latitude":8.3957844,"longitude":-76.3097839,"name":"SAN PEDRO DE URABA"},{"id":"5667","idDepto":"5","latitude":6.3095722,"longitude":-74.9884262,"name":"SAN RAFAEL"},{"id":"5670","idDepto":"5","latitude":6.440639,"longitude":-74.903595,"name":"SAN ROQUE"},{"id":"5674","idDepto":"5","latitude":6.3165054,"longitude":-75.3097382,"name":"SAN VICENTE"},{"id":"5679","idDepto":"5","latitude":5.8671737,"longitude":-75.5753937,"name":"SANTA BARBARA"},{"id":"5686","idDepto":"5","latitude":6.6813312,"longitude":-75.4360123,"name":"SANTA ROSA DE OSOS"},{"id":"5690","idDepto":"5","latitude":6.4808435,"longitude":-75.1286774,"name":"SANTO DOMINGO"},{"id":"5697","idDepto":"5","latitude":6.128828,"longitude":-75.2469101,"name":"SANTUARIO"},{"id":"5736","idDepto":"5","latitude":7.2645011,"longitude":-74.6360474,"name":"SEGOVIA"},{"id":"5756","idDepto":"5","latitude":5.7705741,"longitude":-75.05793,"name":"SONSON"},{"id":"5761","idDepto":"5","latitude":6.5129156,"longitude":-75.7405777,"name":"SOPETRAN"},{"id":"5789","idDepto":"5","latitude":5.6739397,"longitude":-75.7091217,"name":"TAMESIS"},{"id":"5790","idDepto":"5","latitude":7.5171432,"longitude":-75.486084,"name":"TARAZA"},{"id":"5792","idDepto":"5","latitude":5.8729734,"longitude":-75.8286667,"name":"TARSO"},{"id":"5809","idDepto":"5","latitude":6.055398,"longitude":-75.7989731,"name":"TITIRIBI"},{"id":"5819","idDepto":"5","latitude":7.0167837,"longitude":-75.6985855,"name":"TOLEDO"},{"id":"5837","idDepto":"5","latitude":7.9693046,"longitude":-76.7367706,"name":"TURBO"},{"id":"5842","idDepto":"5","latitude":6.9227715,"longitude":-76.120842,"name":"URAMITA"},{"id":"5847","idDepto":"5","latitude":6.3442311,"longitude":-76.2734909,"name":"URRAO"},{"id":"5854","idDepto":"5","latitude":7.2691703,"longitude":-75.3768082,"name":"VALDIVIA"},{"id":"5856","idDepto":"5","latitude":5.6486478,"longitude":-75.6419678,"name":"VALPARAISO"},{"id":"5858","idDepto":"5","latitude":6.8367109,"longitude":-74.7368698,"name":"VEGACHI"},{"id":"5861","idDepto":"5","latitude":5.9559546,"longitude":-75.776619,"name":"VENECIA"},{"id":"5873","idDepto":"5","latitude":6.4763589,"longitude":-76.7090073,"name":"VIGIA DEL FUERTE"},{"id":"5885","idDepto":"5","latitude":6.7229652,"longitude":-74.7504425,"name":"YALI"},{"id":"5887","idDepto":"5","latitude":6.9910178,"longitude":-75.440239,"name":"YARUMAL"},{"id":"5890","idDepto":"5","latitude":6.6511025,"longitude":-74.9156799,"name":"YOLOMBO"},{"id":"5893","idDepto":"5","latitude":6.9323215,"longitude":-74.1500473,"name":"YONDO"},{"id":"5895","idDepto":"5","latitude":7.4859781,"longitude":-74.8459244,"name":"ZARAGOZA"},{"id":"63001","idDepto":"63","latitude":4.4937725,"longitude":-75.7359085,"name":"ARMENIA"},{"id":"63111","idDepto":"63","latitude":4.3646054,"longitude":-75.7505188,"name":"BUENAVISTA"},{"id":"63130","idDepto":"63","latitude":4.4673643,"longitude":-75.6650848,"name":"CALARCA"},{"id":"63190","idDepto":"63","latitude":4.5995688,"longitude":-75.67733,"name":"CIRCASIA"},{"id":"63212","idDepto":"63","latitude":4.3938851,"longitude":-75.6556854,"name":"CORDOBA"},{"id":"63272","idDepto":"63","latitude":4.6667323,"longitude":-75.6745834,"name":"FILANDIA"},{"id":"63302","idDepto":"63","latitude":4.1912303,"longitude":-75.7254944,"name":"GENOVA"},{"id":"63401","idDepto":"63","latitude":4.4409022,"longitude":-75.8050385,"name":"LA TEBAIDA"},{"id":"63470","idDepto":"63","latitude":4.519237,"longitude":-75.8109665,"name":"MONTENEGRO"},{"id":"63548","idDepto":"63","latitude":4.3038764,"longitude":-75.6870804,"name":"PIJAO"},{"id":"63594","idDepto":"63","latitude":4.6025186,"longitude":-75.8000107,"name":"QUIMBAYA"},{"id":"63690","idDepto":"63","latitude":4.6167712,"longitude":-75.5225525,"name":"SALENTO"},{"id":"66001","idDepto":"66","latitude":4.7860322,"longitude":-75.7304001,"name":"PEREIRA"},{"id":"66045","idDepto":"66","latitude":5.1326642,"longitude":-75.9510345,"name":"APIA"},{"id":"66075","idDepto":"66","latitude":4.9157877,"longitude":-75.9478302,"name":"BALBOA"},{"id":"66088","idDepto":"66","latitude":5.2001162,"longitude":-75.876503,"name":"BELEN DE UMBRIA"},{"id":"66170","idDepto":"66","latitude":4.8370037,"longitude":-75.6699142,"name":"DOS QUEBRADAS"},{"id":"66318","idDepto":"66","latitude":5.3285294,"longitude":-75.8121643,"name":"GUATICA"},{"id":"66383","idDepto":"66","latitude":4.9819269,"longitude":-76.0100403,"name":"LA CELIA"},{"id":"66400","idDepto":"66","latitude":4.9095879,"longitude":-75.8618011,"name":"LA VIRGINIA"},{"id":"66440","idDepto":"66","latitude":4.9428692,"longitude":-75.7600174,"name":"MARSELLA"},{"id":"66456","idDepto":"66","latitude":5.4203367,"longitude":-75.9727249,"name":"MISTRATO"},{"id":"66572","idDepto":"66","latitude":5.2885928,"longitude":-76.0803299,"name":"PUEBLO RICO"},{"id":"66594","idDepto":"66","latitude":5.3269968,"longitude":-75.7218781,"name":"QUINCHIA"},{"id":"66682","idDepto":"66","latitude":4.8331938,"longitude":-75.5441589,"name":"SANTA ROSA DE CABAL"},{"id":"66687","idDepto":"66","latitude":5.0525637,"longitude":-76.0029526,"name":"SANTUARIO"},{"id":"68001","idDepto":"68","latitude":7.1563187,"longitude":-73.1131668,"name":"BUCARAMANGA"},{"id":"68013","idDepto":"68","latitude":6.1855755,"longitude":-73.5496445,"name":"AGUADA"},{"id":"68020","idDepto":"68","latitude":5.7907147,"longitude":-73.8319168,"name":"ALBANIA"},{"id":"68051","idDepto":"68","latitude":6.7177792,"longitude":-73.0168839,"name":"ARATOCA"},{"id":"68077","idDepto":"68","latitude":5.9652295,"longitude":-73.6326904,"name":"BARBOSA"},{"id":"68079","idDepto":"68","latitude":6.6464911,"longitude":-73.2197189,"name":"BARICHARA"},{"id":"68081","idDepto":"68","latitude":7.067306,"longitude":-73.7781906,"name":"BARRANCABERMEJA"},{"id":"68092","idDepto":"68","latitude":7.0201817,"longitude":-73.3926163,"name":"BETULIA"},{"id":"68101","idDepto":"68","latitude":6.1101222,"longitude":-74.1049271,"name":"BOLIVAR"},{"id":"68121","idDepto":"68","latitude":6.5666952,"longitude":-73.2555542,"name":"CABRERA"},{"id":"68132","idDepto":"68","latitude":7.3582211,"longitude":-72.922348,"name":"CALIFORNIA"},{"id":"68147","idDepto":"68","latitude":6.5174642,"longitude":-72.6801605,"name":"CAPITANEJO"},{"id":"68152","idDepto":"68","latitude":6.655766,"longitude":-72.5738602,"name":"CARCASI"},{"id":"68160","idDepto":"68","latitude":6.7567911,"longitude":-72.9325256,"name":"CEPITA"},{"id":"68162","idDepto":"68","latitude":6.9114256,"longitude":-72.6496964,"name":"CERRITO"},{"id":"68167","idDepto":"68","latitude":6.2089524,"longitude":-73.1669846,"name":"CHARALA"},{"id":"68169","idDepto":"68","latitude":7.2610168,"longitude":-72.9887466,"name":"CHARTA"},{"id":"68176","idDepto":"68","latitude":6.3773117,"longitude":-73.425415,"name":"CHIMA"},{"id":"68179","idDepto":"68","latitude":6.076035,"longitude":-73.6404877,"name":"CHIPATA"},{"id":"68190","idDepto":"68","latitude":6.4153209,"longitude":-74.1739655,"name":"CIMITARRA"},{"id":"68207","idDepto":"68","latitude":6.7854714,"longitude":-72.6074753,"name":"CONCEPCION"},{"id":"68209","idDepto":"68","latitude":6.3579102,"longitude":-73.2511292,"name":"CONFINES"},{"id":"68211","idDepto":"68","latitude":6.3040252,"longitude":-73.5078583,"name":"CONTRATACION"},{"id":"68217","idDepto":"68","latitude":6.235858,"longitude":-72.9904785,"name":"COROMORO"},{"id":"68229","idDepto":"68","latitude":6.6187024,"longitude":-73.0230179,"name":"CURITI"},{"id":"68235","idDepto":"68","latitude":6.6706729,"longitude":-73.5707855,"name":"EL CARMEN"},{"id":"68245","idDepto":"68","latitude":6.246819,"longitude":-73.5413895,"name":"EL GUACAMAYO"},{"id":"68250","idDepto":"68","latitude":6.1003814,"longitude":-73.9350052,"name":"EL PEÑON"},{"id":"68255","idDepto":"68","latitude":7.5356669,"longitude":-73.1801224,"name":"EL PLAYON"},{"id":"68264","idDepto":"68","latitude":6.0771279,"longitude":-73.0691757,"name":"EL ENCINO"},{"id":"68266","idDepto":"68","latitude":6.6513391,"longitude":-72.6868973,"name":"ENCISO"},{"id":"68271","idDepto":"68","latitude":5.8089337,"longitude":-73.9484406,"name":"FLORIAN"},{"id":"68276","idDepto":"68","latitude":7.0773463,"longitude":-73.0741272,"name":"FLORIDABLANCA"},{"id":"68296","idDepto":"68","latitude":6.6750979,"longitude":-73.3308105,"name":"GALAN"},{"id":"68298","idDepto":"68","latitude":5.9420352,"longitude":-73.3362198,"name":"GAMBITA"},{"id":"68307","idDepto":"68","latitude":7.0382833,"longitude":-73.2475433,"name":"GIRON"},{"id":"68318","idDepto":"68","latitude":6.9435849,"longitude":-72.8317108,"name":"GUACA"},{"id":"68320","idDepto":"68","latitude":6.2401357,"longitude":-73.4156723,"name":"GUADALUPE"},{"id":"68322","idDepto":"68","latitude":6.3239441,"longitude":-73.343071,"name":"GUAPOTA"},{"id":"68324","idDepto":"68","latitude":5.9446149,"longitude":-73.7365952,"name":"GUAVATA"},{"id":"68327","idDepto":"68","latitude":6.0442653,"longitude":-73.5826492,"name":"GUEPSA"},{"id":"68344","idDepto":"68","latitude":6.5639782,"longitude":-73.3718033,"name":"HATO"},{"id":"68368","idDepto":"68","latitude":5.8614717,"longitude":-73.8383408,"name":"JESUS MARIA"},{"id":"68370","idDepto":"68","latitude":6.7155857,"longitude":-73.1006699,"name":"JORDAN"},{"id":"68377","idDepto":"68","latitude":5.9102645,"longitude":-74.0528946,"name":"LA BELLEZA"},{"id":"68385","idDepto":"68","latitude":6.329927,"longitude":-73.833374,"name":"LANDAZURI"},{"id":"68397","idDepto":"68","latitude":6.2187119,"longitude":-73.6268082,"name":"LA PAZ"},{"id":"68406","idDepto":"68","latitude":7.2082567,"longitude":-73.2926865,"name":"LEBRIJA"},{"id":"68418","idDepto":"68","latitude":6.8158684,"longitude":-73.1138229,"name":"LOS SANTOS"},{"id":"68425","idDepto":"68","latitude":6.5191355,"longitude":-72.5862885,"name":"MARACAVITA"},{"id":"68432","idDepto":"68","latitude":6.7172713,"longitude":-72.7449265,"name":"MALAGA"},{"id":"68444","idDepto":"68","latitude":7.3010664,"longitude":-73.0515366,"name":"MATANZA"},{"id":"68464","idDepto":"68","latitude":6.4951301,"longitude":-72.9683838,"name":"MOGOTES"},{"id":"68468","idDepto":"68","latitude":6.6421137,"longitude":-72.8243103,"name":"MOLAGAVITA"},{"id":"68498","idDepto":"68","latitude":6.3573976,"longitude":-73.1344528,"name":"OCAMONTE"},{"id":"68500","idDepto":"68","latitude":6.2299247,"longitude":-73.2916412,"name":"OIBA"},{"id":"68502","idDepto":"68","latitude":6.3400002,"longitude":-72.8225708,"name":"ONZAGA"},{"id":"68522","idDepto":"68","latitude":6.5294471,"longitude":-73.2949829,"name":"PALMAR"},{"id":"68524","idDepto":"68","latitude":6.393384,"longitude":-73.2919998,"name":"PALMAS DEL SOCORRO"},{"id":"68533","idDepto":"68","latitude":6.4190345,"longitude":-73.1806335,"name":"PARAMO"},{"id":"68547","idDepto":"68","latitude":6.9620891,"longitude":-73.0105438,"name":"PIEDECUESTA"},{"id":"68549","idDepto":"68","latitude":6.5170407,"longitude":-73.1845398,"name":"PINCHOTE"},{"id":"68572","idDepto":"68","latitude":5.8413129,"longitude":-73.6793671,"name":"PUENTE NACIONAL"},{"id":"68573","idDepto":"68","latitude":6.6910477,"longitude":-73.9605637,"name":"PUERTO PARRA"},{"id":"68575","idDepto":"68","latitude":7.5814304,"longitude":-73.7901917,"name":"PUERTO WILCHES"},{"id":"68615","idDepto":"68","latitude":7.4655709,"longitude":-73.3298569,"name":"RIONEGRO"},{"id":"68655","idDepto":"68","latitude":7.4124312,"longitude":-73.5724716,"name":"SABANA DE TORRES"},{"id":"68669","idDepto":"68","latitude":6.8003678,"longitude":-72.8206635,"name":"SAN ANDRES"},{"id":"68673","idDepto":"68","latitude":6.103405,"longitude":-73.5359497,"name":"SAN BENITO"},{"id":"68679","idDepto":"68","latitude":6.5508595,"longitude":-73.1272125,"name":"SAN GIL"},{"id":"68682","idDepto":"68","latitude":6.4652805,"longitude":-72.8645096,"name":"SAN JOAQUIN"},{"id":"68684","idDepto":"68","latitude":6.6303582,"longitude":-72.747612,"name":"SAN JOSE DE MIRANDA"},{"id":"68686","idDepto":"68","latitude":6.5642753,"longitude":-72.6511459,"name":"SAN MIGUEL"},{"id":"68689","idDepto":"68","latitude":6.9011068,"longitude":-73.5476685,"name":"SAN VICENTE DEL CHUCURI"},{"id":"68705","idDepto":"68","latitude":6.9669619,"longitude":-72.9128494,"name":"SANTA BARBARA"},{"id":"68720","idDepto":"68","latitude":6.4111195,"longitude":-73.5895844,"name":"SANTA HELENA DEL OPON"},{"id":"68745","idDepto":"68","latitude":6.6630902,"longitude":-73.701561,"name":"SIMACOTA"},{"id":"68755","idDepto":"68","latitude":6.4662385,"longitude":-73.2520523,"name":"SOCORRO"},{"id":"68770","idDepto":"68","latitude":6.1197119,"longitude":-73.3729019,"name":"SUAITA"},{"id":"68773","idDepto":"68","latitude":5.9892173,"longitude":-73.956665,"name":"SUCRE"},{"id":"68780","idDepto":"68","latitude":7.4838581,"longitude":-72.9893341,"name":"SURATA"},{"id":"68820","idDepto":"68","latitude":7.17169,"longitude":-72.9400482,"name":"TONA"},{"id":"68855","idDepto":"68","latitude":6.4357171,"longitude":-73.1175385,"name":"VALLE SAN JOSE"},{"id":"68861","idDepto":"68","latitude":6.2586861,"longitude":-73.7007904,"name":"VELEZ"},{"id":"68867","idDepto":"68","latitude":7.326004,"longitude":-72.8857956,"name":"VETAS"},{"id":"68872","idDepto":"68","latitude":6.6978321,"longitude":-73.170105,"name":"VILLANUEVA"},{"id":"68895","idDepto":"68","latitude":6.8386674,"longitude":-73.2846832,"name":"ZAPATOCA"},{"id":"70001","idDepto":"70","latitude":9.3201971,"longitude":-75.429306,"name":"SINCELEJO"},{"id":"70110","idDepto":"70","latitude":9.3353863,"longitude":-74.9441833,"name":"BUENAVISTA"},{"id":"70124","idDepto":"70","latitude":8.7890396,"longitude":-75.1171341,"name":"CAIMITO"},{"id":"70204","idDepto":"70","latitude":9.5338783,"longitude":-75.3585129,"name":"COLOSO"},{"id":"70215","idDepto":"70","latitude":9.2079229,"longitude":-75.2441101,"name":"COROZAL"},{"id":"70221","idDepto":"70","latitude":9.3971624,"longitude":-75.6609497,"name":"COVEÑAS"},{"id":"70230","idDepto":"70","latitude":9.5866899,"longitude":-75.3195267,"name":"CHALAN"},{"id":"70233","idDepto":"70","latitude":9.0768652,"longitude":-75.1358871,"name":"EL ROBLE"},{"id":"70235","idDepto":"70","latitude":9.1459846,"longitude":-74.9727249,"name":"GALERAS"},{"id":"70265","idDepto":"70","latitude":8.3867588,"longitude":-74.6657562,"name":"GUARANDA"},{"id":"70400","idDepto":"70","latitude":8.8110466,"longitude":-75.2959442,"name":"LA UNION"},{"id":"70418","idDepto":"70","latitude":9.4358978,"longitude":-75.2112427,"name":"LOS PALMITOS"},{"id":"70429","idDepto":"70","latitude":8.5530825,"longitude":-74.7081146,"name":"MAJAGUAL"},{"id":"70473","idDepto":"70","latitude":9.3963013,"longitude":-75.3253555,"name":"MORROA"},{"id":"70508","idDepto":"70","latitude":9.5699635,"longitude":-75.1802521,"name":"OVEJAS"},{"id":"70523","idDepto":"70","latitude":9.343462,"longitude":-75.5622253,"name":"PALMITO"},{"id":"70670","idDepto":"70","latitude":9.1643496,"longitude":-75.3411789,"name":"SAMPUES"},{"id":"70678","idDepto":"70","latitude":8.8440742,"longitude":-74.9617233,"name":"SAN BENITO ABAD"},{"id":"70702","idDepto":"70","latitude":9.3000622,"longitude":-75.2096405,"name":"SAN JUAN DE BETULIA"},{"id":"70708","idDepto":"70","latitude":8.5885324,"longitude":-75.1670456,"name":"SAN MARCOS"},{"id":"70713","idDepto":"70","latitude":9.8213768,"longitude":-75.5000305,"name":"SAN ONOFRE"},{"id":"70742","idDepto":"70","latitude":9.2626047,"longitude":-75.0803909,"name":"SINCE"},{"id":"70771","idDepto":"70","latitude":8.8273525,"longitude":-74.744133,"name":"SUCRE"},{"id":"70820","idDepto":"70","latitude":9.5399494,"longitude":-75.5354767,"name":"TOLU"},{"id":"70823","idDepto":"70","latitude":9.4971876,"longitude":-75.4391556,"name":"TOLUVIEJO"},{"id":"73001","idDepto":"73","latitude":4.4447613,"longitude":-75.2446136,"name":"IBAGUE"},{"id":"73024","idDepto":"73","latitude":3.3855512,"longitude":-74.9389801,"name":"ALPUJARRA"},{"id":"73026","idDepto":"73","latitude":4.5799117,"longitude":-74.9816818,"name":"ALVARADO"},{"id":"73030","idDepto":"73","latitude":4.8241611,"longitude":-74.8059692,"name":"AMBALEMA"},{"id":"73043","idDepto":"73","latitude":4.6324835,"longitude":-75.1874008,"name":"ANZOATEGUI"},{"id":"73055","idDepto":"73","latitude":5.0076127,"longitude":-74.8441849,"name":"ARMERO-GUAYABAL"},{"id":"73067","idDepto":"73","latitude":3.4173057,"longitude":-75.4857483,"name":"ATACO"},{"id":"73124","idDepto":"73","latitude":4.4072008,"longitude":-75.4934464,"name":"CAJAMARCA"},{"id":"73148","idDepto":"73","latitude":4.1158533,"longitude":-74.7407455,"name":"CARMEN DE APICALA"},{"id":"73152","idDepto":"73","latitude":5.0146089,"longitude":-75.1836166,"name":"CASABIANCA"},{"id":"73168","idDepto":"73","latitude":3.7347279,"longitude":-75.5908966,"name":"CHAPARRAL"},{"id":"73200","idDepto":"73","latitude":4.346519,"longitude":-74.9141922,"name":"COELLO"},{"id":"73217","idDepto":"73","latitude":3.7236376,"longitude":-75.1536942,"name":"COYAIMA"},{"id":"73226","idDepto":"73","latitude":3.9734113,"longitude":-74.6837463,"name":"CUNDAY"},{"id":"73236","idDepto":"73","latitude":3.5735724,"longitude":-74.8242035,"name":"DOLORES"},{"id":"73268","idDepto":"73","latitude":4.1652679,"longitude":-74.8915787,"name":"ESPINAL"},{"id":"73270","idDepto":"73","latitude":5.0825729,"longitude":-74.9561768,"name":"FALAN"},{"id":"73275","idDepto":"73","latitude":4.242547,"longitude":-74.8366165,"name":"FLANDES"},{"id":"73283","idDepto":"73","latitude":5.1895189,"longitude":-75.0493317,"name":"FRESNO"},{"id":"73319","idDepto":"73","latitude":4.0722804,"longitude":-74.974762,"name":"GUAMO"},{"id":"73347","idDepto":"73","latitude":5.0760193,"longitude":-75.2332535,"name":"HERVEO"},{"id":"73349","idDepto":"73","latitude":5.1816292,"longitude":-74.7805481,"name":"HONDA"},{"id":"73352","idDepto":"73","latitude":4.1426907,"longitude":-74.5465927,"name":"ICONONZO"},{"id":"73408","idDepto":"73","latitude":4.8654175,"longitude":-74.9173813,"name":"LERIDA"},{"id":"73411","idDepto":"73","latitude":4.8758821,"longitude":-75.0415802,"name":"LIBANO"},{"id":"73443","idDepto":"73","latitude":5.2368755,"longitude":-74.8992844,"name":"MARIQUITA"},{"id":"73449","idDepto":"73","latitude":4.1809711,"longitude":-74.6411972,"name":"MELGAR"},{"id":"73461","idDepto":"73","latitude":4.8276458,"longitude":-75.2192917,"name":"MURILLO"},{"id":"73483","idDepto":"73","latitude":3.5348804,"longitude":-75.1164322,"name":"NATAGAIMA"},{"id":"73504","idDepto":"73","latitude":3.9292712,"longitude":-75.2662735,"name":"ORTEGA"},{"id":"73520","idDepto":"73","latitude":5.0855198,"longitude":-75.0269012,"name":"PALOCABILDO"},{"id":"73547","idDepto":"73","latitude":4.4807038,"longitude":-74.9209061,"name":"PIEDRAS"},{"id":"73555","idDepto":"73","latitude":3.1364701,"longitude":-75.8288803,"name":"PLANADAS"},{"id":"73563","idDepto":"73","latitude":3.7194293,"longitude":-74.8738861,"name":"PRADO"},{"id":"73585","idDepto":"73","latitude":3.8425066,"longitude":-74.8661499,"name":"PURIFICACION"},{"id":"73616","idDepto":"73","latitude":3.4575117,"longitude":-75.8443222,"name":"RIOBLANCO"},{"id":"73622","idDepto":"73","latitude":4.099401,"longitude":-75.5793076,"name":"RONCESVALLES"},{"id":"73624","idDepto":"73","latitude":4.2118917,"longitude":-75.334671,"name":"ROVIRA"},{"id":"73671","idDepto":"73","latitude":3.9018302,"longitude":-75.0162201,"name":"SALDAÑA"},{"id":"73675","idDepto":"73","latitude":3.9457102,"longitude":-75.4884415,"name":"SAN ANTONIO"},{"id":"73678","idDepto":"73","latitude":4.1229544,"longitude":-75.1062546,"name":"SAN LUIS"},{"id":"73686","idDepto":"73","latitude":4.7300782,"longitude":-75.2089157,"name":"SANTA ISABEL"},{"id":"73770","idDepto":"73","latitude":4.0557919,"longitude":-74.8165359,"name":"SUAREZ"},{"id":"73854","idDepto":"73","latitude":4.1793113,"longitude":-75.1621323,"name":"VALLE DE SAN JUAN"},{"id":"73861","idDepto":"73","latitude":4.7102218,"longitude":-74.9206924,"name":"VENADILLO"},{"id":"73870","idDepto":"73","latitude":0,"longitude":0,"name":"VILLAHERMOSA"},{"id":"73873","idDepto":"73","latitude":3.837116,"longitude":-74.615387,"name":"VILLARRICA"},{"id":"76001","idDepto":"76","latitude":3.3924532,"longitude":-76.5766373,"name":"CALI"},{"id":"76020","idDepto":"76","latitude":4.6687956,"longitude":-75.7869339,"name":"ALCALA"},{"id":"76036","idDepto":"76","latitude":4.1272225,"longitude":-76.1394806,"name":"ANDALUCIA"},{"id":"76041","idDepto":"76","latitude":4.7942414,"longitude":-76.0416031,"name":"ANSERMANUEVO"},{"id":"76054","idDepto":"76","latitude":4.7090006,"longitude":-76.1428375,"name":"ARGELIA"},{"id":"76100","idDepto":"76","latitude":4.3753943,"longitude":-76.380127,"name":"BOLIVAR"},{"id":"76109","idDepto":"76","latitude":3.5721738,"longitude":-77.0578766,"name":"BUENAVENTURA"},{"id":"76111","idDepto":"76","latitude":3.8523636,"longitude":-76.1159134,"name":"BUGA"},{"id":"76113","idDepto":"76","latitude":4.2038927,"longitude":-76.0978928,"name":"BUGALAGRANDE"},{"id":"76122","idDepto":"76","latitude":4.3012614,"longitude":-75.8331985,"name":"CAICEDONIA"},{"id":"76126","idDepto":"76","latitude":3.9559412,"longitude":-76.6259232,"name":"CALIMA (EL DARIEN)"},{"id":"76130","idDepto":"76","latitude":3.3785825,"longitude":-76.3787842,"name":"CANDELARIA"},{"id":"76147","idDepto":"76","latitude":4.7056293,"longitude":-75.9245148,"name":"CARTAGO"},{"id":"76233","idDepto":"76","latitude":3.6461916,"longitude":-76.7174606,"name":"DAGUA"},{"id":"76243","idDepto":"76","latitude":4.9092746,"longitude":-76.0858459,"name":"EL AGUILA"},{"id":"76246","idDepto":"76","latitude":4.7547297,"longitude":-76.2478485,"name":"EL CAIRO"},{"id":"76248","idDepto":"76","latitude":3.6731706,"longitude":-76.2022934,"name":"EL CERRITO"},{"id":"76250","idDepto":"76","latitude":4.5400391,"longitude":-76.3197174,"name":"EL DOVIO"},{"id":"76275","idDepto":"76","latitude":3.3036206,"longitude":-76.1566315,"name":"FLORIDA"},{"id":"76306","idDepto":"76","latitude":3.7402463,"longitude":-76.1878204,"name":"GINEBRA"},{"id":"76318","idDepto":"76","latitude":3.7793281,"longitude":-76.2933426,"name":"GUACARI"},{"id":"76364","idDepto":"76","latitude":3.193996,"longitude":-76.6302643,"name":"JAMUNDI"},{"id":"76377","idDepto":"76","latitude":3.6912308,"longitude":-76.5892487,"name":"LA CUMBRE"},{"id":"76400","idDepto":"76","latitude":4.5296197,"longitude":-76.1058807,"name":"LA UNION"},{"id":"76403","idDepto":"76","latitude":4.4790492,"longitude":-75.9646454,"name":"LA VICTORIA"},{"id":"76497","idDepto":"76","latitude":4.5903568,"longitude":-75.950798,"name":"OBANDO"},{"id":"76520","idDepto":"76","latitude":3.5534329,"longitude":-76.2175751,"name":"PALMIRA"},{"id":"76563","idDepto":"76","latitude":3.4147835,"longitude":-76.1628494,"name":"PRADERA"},{"id":"76606","idDepto":"76","latitude":3.8036397,"longitude":-76.5350647,"name":"RESTREPO"},{"id":"76616","idDepto":"76","latitude":4.1065922,"longitude":-76.3928223,"name":"RIOFRIO"},{"id":"76622","idDepto":"76","latitude":4.4380269,"longitude":-76.172142,"name":"ROLDANILLO"},{"id":"76670","idDepto":"76","latitude":3.9777329,"longitude":-76.2114334,"name":"SAN PEDRO"},{"id":"76736","idDepto":"76","latitude":4.1828995,"longitude":-75.8657303,"name":"SEVILLA"},{"id":"76823","idDepto":"76","latitude":4.6339812,"longitude":-76.0862427,"name":"TORO"},{"id":"76828","idDepto":"76","latitude":4.2317133,"longitude":-76.3466797,"name":"TRUJILLO"},{"id":"76834","idDepto":"76","latitude":4.0275216,"longitude":-76.0428238,"name":"TULUA"},{"id":"76845","idDepto":"76","latitude":4.7087336,"longitude":-75.7822418,"name":"ULLOA"},{"id":"76863","idDepto":"76","latitude":4.6224809,"longitude":-76.2649307,"name":"VERSALLES"},{"id":"76869","idDepto":"76","latitude":3.7413838,"longitude":-76.4657974,"name":"VIJES"},{"id":"76890","idDepto":"76","latitude":3.8979311,"longitude":-76.3920059,"name":"YOTOCO"},{"id":"76892","idDepto":"76","latitude":3.5916936,"longitude":-76.5098572,"name":"YUMBO"},{"id":"76895","idDepto":"76","latitude":4.3611908,"longitude":-76.0519104,"name":"ZARZAL"},{"id":"8001","idDepto":"8","latitude":10.99016,"longitude":-74.8373489,"name":"BARRANQUILLA"},{"id":"8078","idDepto":"8","latitude":10.7679043,"longitude":-74.8666611,"name":"BARANOA"},{"id":"81001","idDepto":"81","latitude":6.816287,"longitude":-70.5104065,"name":"ARAUCA"},{"id":"81065","idDepto":"81","latitude":6.8045583,"longitude":-71.3147507,"name":"ARAUQUITA"},{"id":"81220","idDepto":"81","latitude":6.3628812,"longitude":-70.0897827,"name":"CRAVO NORTE"},{"id":"81300","idDepto":"81","latitude":6.6953912,"longitude":-71.8615875,"name":"FORTUL"},{"id":"8137","idDepto":"8","latitude":10.4018126,"longitude":-74.8863983,"name":"CAMPO DE LA CRUZ"},{"id":"8141","idDepto":"8","latitude":10.4899931,"longitude":-74.8857346,"name":"CANDELARIA"},{"id":"81591","idDepto":"81","latitude":6.4229865,"longitude":-70.9529343,"name":"PUERTO RONDON"},{"id":"81736","idDepto":"81","latitude":6.9094434,"longitude":-71.8606262,"name":"SARAVENA"},{"id":"81794","idDepto":"81","latitude":6.3957529,"longitude":-71.8040695,"name":"TAME"},{"id":"8296","idDepto":"8","latitude":10.897604,"longitude":-74.9014893,"name":"GALAPA"},{"id":"8372","idDepto":"8","latitude":10.8259525,"longitude":-75.093277,"name":"JUAN DE ACOSTA"},{"id":"8421","idDepto":"8","latitude":10.6264515,"longitude":-75.1743774,"name":"LURUACO"},{"id":"8433","idDepto":"8","latitude":10.8486681,"longitude":-74.817009,"name":"MALAMBO"},{"id":"8436","idDepto":"8","latitude":10.4544697,"longitude":-74.9930038,"name":"MANATI"},{"id":"85001","idDepto":"85","latitude":5.245708,"longitude":-72.2626572,"name":"YOPAL"},{"id":"85010","idDepto":"85","latitude":5.1322179,"longitude":-72.5516739,"name":"AGUAZUL"},{"id":"85015","idDepto":"85","latitude":5.2282319,"longitude":-72.8755112,"name":"CHAMEZA"},{"id":"85125","idDepto":"85","latitude":6.1141691,"longitude":-71.149231,"name":"HATO COROZAL"},{"id":"85136","idDepto":"85","latitude":6.1729178,"longitude":-72.3516006,"name":"LA SALINA"},{"id":"85139","idDepto":"85","latitude":4.6790991,"longitude":-72.2162552,"name":"MANI"},{"id":"85162","idDepto":"85","latitude":4.8417754,"longitude":-72.8434677,"name":"MONTERREY"},{"id":"8520","idDepto":"8","latitude":10.6953974,"longitude":-74.7813721,"name":"PALMAR DE VARELA"},{"id":"85225","idDepto":"85","latitude":5.535603,"longitude":-72.104866,"name":"NUNCHIA"},{"id":"85230","idDepto":"85","latitude":4.918673,"longitude":-71.6001282,"name":"OROCUE"},{"id":"85250","idDepto":"85","latitude":5.7871518,"longitude":-70.8721924,"name":"PAZ DE ARIPORO"},{"id":"85263","idDepto":"85","latitude":5.6668267,"longitude":-71.9275589,"name":"PORE"},{"id":"85279","idDepto":"85","latitude":5.2705579,"longitude":-72.7786713,"name":"RECETOR"},{"id":"85300","idDepto":"85","latitude":4.8094029,"longitude":-72.996788,"name":"SABANALARGA"},{"id":"85315","idDepto":"85","latitude":6.049346,"longitude":-72.2182236,"name":"SACAMA"},{"id":"85325","idDepto":"85","latitude":5.2415514,"longitude":-71.5997391,"name":"SAN LUIS DE PALENQUE"},{"id":"85400","idDepto":"85","latitude":5.881526,"longitude":-72.2111206,"name":"TAMARA"},{"id":"85410","idDepto":"85","latitude":4.7017593,"longitude":-72.6309052,"name":"TAURAMENA"},{"id":"85430","idDepto":"85","latitude":5.374763,"longitude":-71.1856689,"name":"TRINIDAD"},{"id":"85440","idDepto":"85","latitude":4.52246,"longitude":-72.8251495,"name":"VILLANUEVA"},{"id":"8549","idDepto":"8","latitude":10.7402525,"longitude":-75.159935,"name":"PIOJO"},{"id":"8558","idDepto":"8","latitude":10.7917042,"longitude":-74.934639,"name":"POLONUEVO"},{"id":"8560","idDepto":"8","latitude":10.5992069,"longitude":-74.8065567,"name":"PONEDERA"},{"id":"8573","idDepto":"8","latitude":11.0174065,"longitude":-74.9159851,"name":"PUERTO COLOMBIA"},{"id":"86001","idDepto":"86","latitude":1.1791047,"longitude":-76.6313095,"name":"MOCOA"},{"id":"8606","idDepto":"8","latitude":10.5090504,"longitude":-75.1325912,"name":"REPELON"},{"id":"86219","idDepto":"86","latitude":1.1926718,"longitude":-76.9958572,"name":"COLON"},{"id":"86320","idDepto":"86","latitude":0.6672291,"longitude":-76.9366074,"name":"ORITO"},{"id":"8634","idDepto":"8","latitude":10.8004971,"longitude":-74.7782822,"name":"SABANAGRANDE"},{"id":"8638","idDepto":"8","latitude":10.6208334,"longitude":-74.9661331,"name":"SABANALARGA"},{"id":"86568","idDepto":"86","latitude":0.4757761,"longitude":-76.3431091,"name":"PUERTO ASIS"},{"id":"86569","idDepto":"86","latitude":0.7080117,"longitude":-76.4762802,"name":"PUERTO CAICEDO"},{"id":"86571","idDepto":"86","latitude":0.7458765,"longitude":-75.8647919,"name":"PUERTO GUZMAN"},{"id":"86573","idDepto":"86","latitude":0.0675783,"longitude":-75.0637817,"name":"PUERTO LEGUIZAMO"},{"id":"86749","idDepto":"86","latitude":1.1871529,"longitude":-76.9301834,"name":"SIBUNDOY"},{"id":"8675","idDepto":"8","latitude":10.3536949,"longitude":-74.9718399,"name":"SANTA LUCIA"},